{"type":"FeatureCollection","features":[{"type":"Feature","properties":{"stop_id":5972,"stopa_name":"Aane Kempegowdana Doddi(towards - Manchanabele)"},"geometry":{"type":"Point","coordinates":[77.33497315,12.8615916]}},{"type":"Feature","properties":{"stop_id":5973,"stopa_name":"Aane Kempegowdana Doddi(towards - Gadigaiahna Doddi)"},"geometry":{"type":"Point","coordinates":[77.33511598,12.86153146]}},{"type":"Feature","properties":{"stop_id":6853,"stopa_name":"Abbaiah Layout"},"geometry":{"type":"Point","coordinates":[77.68081784,12.97932654]}},{"type":"Feature","properties":{"stop_id":6854,"stopa_name":"Abbaiah Layout(towards - Malleshpalya)"},"geometry":{"type":"Point","coordinates":[77.68080711,12.9792795]}},{"type":"Feature","properties":{"stop_id":3200,"stopa_name":"Abbanakuppe(towards - Mysore Road)"},"geometry":{"type":"Point","coordinates":[77.40941016,12.77410247]}},{"type":"Feature","properties":{"stop_id":3199,"stopa_name":"Abbanakuppe(towards - Byramangala)"},"geometry":{"type":"Point","coordinates":[77.40939522,12.77420561]}},{"type":"Feature","properties":{"stop_id":12037,"stopa_name":"Abbanakuppe Colony(towards - Byramangala Lake)"},"geometry":{"type":"Point","coordinates":[77.41627224,12.7712582]}},{"type":"Feature","properties":{"stop_id":12036,"stopa_name":"Abbanakuppe Colony(towards - Abbanakuppe)"},"geometry":{"type":"Point","coordinates":[77.41631649,12.77123008]}},{"type":"Feature","properties":{"stop_id":10464,"stopa_name":"Abbigere"},"geometry":{"type":"Point","coordinates":[77.52568625,13.07699663]}},{"type":"Feature","properties":{"stop_id":11223,"stopa_name":"Abbigere Cross(towards - Chikka Banavara)"},"geometry":{"type":"Point","coordinates":[77.52354652,13.07243454]}},{"type":"Feature","properties":{"stop_id":11222,"stopa_name":"Abbigere Cross(towards - Abbigere)"},"geometry":{"type":"Point","coordinates":[77.52352506,13.07247634]}},{"type":"Feature","properties":{"stop_id":10466,"stopa_name":"Abbigere Cross ( Government School)(towards - ABBIGERE)"},"geometry":{"type":"Point","coordinates":[77.52967805,13.07066443]}},{"type":"Feature","properties":{"stop_id":10465,"stopa_name":"Abbigere Cross (Government School)(towards - Kammagondanahalli)"},"geometry":{"type":"Point","coordinates":[77.52972163,13.07066377]}},{"type":"Feature","properties":{"stop_id":11197,"stopa_name":"Accenture B-7 Eco Space(towards - Accenture B-7 End Point)"},"geometry":{"type":"Point","coordinates":[77.68089428,12.92774279]}},{"type":"Feature","properties":{"stop_id":11154,"stopa_name":"Accenture B6 Kundanahalli(towards - Accenture  B6  Last Point)"},"geometry":{"type":"Point","coordinates":[77.72490732,12.96854029]}},{"type":"Feature","properties":{"stop_id":11815,"stopa_name":"Achappa Layout (Brigade Millenium)(towards - Last Bus Stop)"},"geometry":{"type":"Point","coordinates":[77.5805676,12.89166652]}},{"type":"Feature","properties":{"stop_id":5955,"stopa_name":"Acharya College(towards - Andrahalli)"},"geometry":{"type":"Point","coordinates":[77.48811454,13.00234678]}},{"type":"Feature","properties":{"stop_id":4399,"stopa_name":"Acharya College(towards - Herohalli Cross)"},"geometry":{"type":"Point","coordinates":[77.4882245,13.00230235]}},{"type":"Feature","properties":{"stop_id":4604,"stopa_name":"Acharya Institute of Technology(towards - Janapriya Appartment)"},"geometry":{"type":"Point","coordinates":[77.48409927,13.08351475]}},{"type":"Feature","properties":{"stop_id":4605,"stopa_name":"Acharya Institute of Technology(towards - Alur)"},"geometry":{"type":"Point","coordinates":[77.48420857,13.08348536]}},{"type":"Feature","properties":{"stop_id":10494,"stopa_name":"Achithanagar Gate(towards - Achithanagar)"},"geometry":{"type":"Point","coordinates":[77.48644419,13.08424692]}},{"type":"Feature","properties":{"stop_id":10493,"stopa_name":"Achithanagar Gate(towards - Janapriya Appartment)"},"geometry":{"type":"Point","coordinates":[77.48650253,13.08439256]}},{"type":"Feature","properties":{"stop_id":4603,"stopa_name":"Achuthanagara"},"geometry":{"type":"Point","coordinates":[77.48603582,13.08962028]}},{"type":"Feature","properties":{"stop_id":9360,"stopa_name":"ACTS College(towards - Rayasandra)"},"geometry":{"type":"Point","coordinates":[77.69231111,12.88143016]}},{"type":"Feature","properties":{"stop_id":9359,"stopa_name":"ACTS College(towards - Chikkanayakanahalli Dinne)"},"geometry":{"type":"Point","coordinates":[77.69186184,12.88150206]}},{"type":"Feature","properties":{"stop_id":9856,"stopa_name":"Adakamaranahalli(towards - Chikkamaskal)"},"geometry":{"type":"Point","coordinates":[77.31053755,12.94712782]}},{"type":"Feature","properties":{"stop_id":9857,"stopa_name":"Adakamaranahalli(towards - Shanubhoganahalli)"},"geometry":{"type":"Point","coordinates":[77.31048457,12.94708012]}},{"type":"Feature","properties":{"stop_id":864,"stopa_name":"Adakimaranahalli(towards - Jalahalli Cross)"},"geometry":{"type":"Point","coordinates":[77.44490183,13.07072696]}},{"type":"Feature","properties":{"stop_id":861,"stopa_name":"Adakimaranahalli(towards - Nelamangala)"},"geometry":{"type":"Point","coordinates":[77.44462655,13.07036278]}},{"type":"Feature","properties":{"stop_id":10338,"stopa_name":"Adakimaranahalli Bridge(towards - Depot-40)"},"geometry":{"type":"Point","coordinates":[77.44763263,13.06872056]}},{"type":"Feature","properties":{"stop_id":11963,"stopa_name":"Adakimaranahalli Cross(towards - Ravuttanahalli)"},"geometry":{"type":"Point","coordinates":[77.43659265,13.06245513]}},{"type":"Feature","properties":{"stop_id":5586,"stopa_name":"Adakimaranahalli Cross(towards - Magadi)"},"geometry":{"type":"Point","coordinates":[77.30918973,12.95437418]}},{"type":"Feature","properties":{"stop_id":11962,"stopa_name":"Adakimaranahalli Cross(towards - Tumkur Road)"},"geometry":{"type":"Point","coordinates":[77.43655644,13.06251653]}},{"type":"Feature","properties":{"stop_id":5587,"stopa_name":"Adakimaranahalli Cross(towards - Thippagondahalli)"},"geometry":{"type":"Point","coordinates":[77.30929165,12.95451272]}},{"type":"Feature","properties":{"stop_id":9251,"stopa_name":"Adakimaranahalli Gate(towards - Makali)"},"geometry":{"type":"Point","coordinates":[77.44520053,13.06976696]}},{"type":"Feature","properties":{"stop_id":9250,"stopa_name":"Adakimaranahalli Gate(towards - Adakimaranahalli)"},"geometry":{"type":"Point","coordinates":[77.44522467,13.06967159]}},{"type":"Feature","properties":{"stop_id":10462,"stopa_name":"Adakimaranahalli Village(towards - Tumkur Road)"},"geometry":{"type":"Point","coordinates":[77.44329147,13.064919]}},{"type":"Feature","properties":{"stop_id":10461,"stopa_name":"Adakimaranahalli Village"},"geometry":{"type":"Point","coordinates":[77.44330019,13.06486478]}},{"type":"Feature","properties":{"stop_id":10481,"stopa_name":"Adarshanagara(towards - Depot-43)"},"geometry":{"type":"Point","coordinates":[77.42375225,13.07615892]}},{"type":"Feature","properties":{"stop_id":10496,"stopa_name":"Adarshanagara (Arishinakunte)(towards - Arishinakunte)"},"geometry":{"type":"Point","coordinates":[77.42046252,13.07464814]}},{"type":"Feature","properties":{"stop_id":10497,"stopa_name":"Adarshanagara (Arishinakunte)"},"geometry":{"type":"Point","coordinates":[77.4205222,13.07467296]}},{"type":"Feature","properties":{"stop_id":10480,"stopa_name":"Adarshanagara (D43 Road)(towards - Arishinakunte)"},"geometry":{"type":"Point","coordinates":[77.42370933,13.0762066]}},{"type":"Feature","properties":{"stop_id":10667,"stopa_name":"Adde Gramma(towards - Last Point)"},"geometry":{"type":"Point","coordinates":[77.54698366,13.20615268]}},{"type":"Feature","properties":{"stop_id":11346,"stopa_name":"Addevishwanathpura(towards - Addegramm)"},"geometry":{"type":"Point","coordinates":[77.55106866,13.18668225]}},{"type":"Feature","properties":{"stop_id":11347,"stopa_name":"Addevishwanathpura(towards - Rajanukunte)"},"geometry":{"type":"Point","coordinates":[77.55111628,13.18669923]}},{"type":"Feature","properties":{"stop_id":1954,"stopa_name":"Addiganahalli(towards - Adigonhalli Extension)"},"geometry":{"type":"Point","coordinates":[77.5695334,13.17295433]}},{"type":"Feature","properties":{"stop_id":1947,"stopa_name":"Addiganahalli(towards - Rajanukunte)"},"geometry":{"type":"Point","coordinates":[77.56958865,13.17291279]}},{"type":"Feature","properties":{"stop_id":3462,"stopa_name":"Adiganahalli Extension(towards - Tharahunase)"},"geometry":{"type":"Point","coordinates":[77.5712559,13.17279997]}},{"type":"Feature","properties":{"stop_id":3461,"stopa_name":"Adiganahalli Extension(towards - Tharahunase)"},"geometry":{"type":"Point","coordinates":[77.57121807,13.17284099]}},{"type":"Feature","properties":{"stop_id":7029,"stopa_name":"Adigara Kallahalli(towards - Last Bus Stop)"},"geometry":{"type":"Point","coordinates":[77.8033036,12.82534366]}},{"type":"Feature","properties":{"stop_id":7028,"stopa_name":"Adigara Kallahalli(towards - Exide Gate)"},"geometry":{"type":"Point","coordinates":[77.80355573,12.82520243]}},{"type":"Feature","properties":{"stop_id":3143,"stopa_name":"Adigondanahalli(towards - Bendigonhalli)"},"geometry":{"type":"Point","coordinates":[77.75115867,12.81456709]}},{"type":"Feature","properties":{"stop_id":3142,"stopa_name":"Adigondanahalli(towards - Suryanagara KHB)"},"geometry":{"type":"Point","coordinates":[77.75125622,12.81456117]}},{"type":"Feature","properties":{"stop_id":8975,"stopa_name":"Adithi School(towards - Yelahanka New Town)"},"geometry":{"type":"Point","coordinates":[77.58297287,13.10240691]}},{"type":"Feature","properties":{"stop_id":11006,"stopa_name":"Aditya Auto"},"geometry":{"type":"Point","coordinates":[77.53157973,13.2815398]}},{"type":"Feature","properties":{"stop_id":11583,"stopa_name":"Adityanagara (Jally Machine)(towards - Last Bus Stop)"},"geometry":{"type":"Point","coordinates":[77.55071461,13.08597318]}},{"type":"Feature","properties":{"stop_id":7156,"stopa_name":"Ado Sonnahatti(towards - Last stop)"},"geometry":{"type":"Point","coordinates":[77.71553636,12.77796189]}},{"type":"Feature","properties":{"stop_id":7155,"stopa_name":"Ado Sonnahatti(towards - Thirumagondanahalli)"},"geometry":{"type":"Point","coordinates":[77.71546126,12.77795929]}},{"type":"Feature","properties":{"stop_id":2656,"stopa_name":"Adugodi(towards - Jn  Of Hosur Road)"},"geometry":{"type":"Point","coordinates":[77.60780314,12.94379309]}},{"type":"Feature","properties":{"stop_id":10202,"stopa_name":"Adugodi(towards - MICO)"},"geometry":{"type":"Point","coordinates":[77.60739438,12.94398836]}},{"type":"Feature","properties":{"stop_id":11578,"stopa_name":"Adugodi(towards - Adogodi Village)"},"geometry":{"type":"Point","coordinates":[77.60796637,12.94403411]}},{"type":"Feature","properties":{"stop_id":2657,"stopa_name":"Adugodi(towards - Anapalya)"},"geometry":{"type":"Point","coordinates":[77.60768627,12.94372265]}},{"type":"Feature","properties":{"stop_id":11752,"stopa_name":"Adugodi(towards - Adugodi Police Quaters)"},"geometry":{"type":"Point","coordinates":[77.60747552,12.94406743]}},{"type":"Feature","properties":{"stop_id":11230,"stopa_name":"Adugodi HP Sales Office"},"geometry":{"type":"Point","coordinates":[77.61042595,12.93701005]}},{"type":"Feature","properties":{"stop_id":2659,"stopa_name":"Adugodi Police Statiion(towards - Adugodi)"},"geometry":{"type":"Point","coordinates":[77.60966911,12.93895241]}},{"type":"Feature","properties":{"stop_id":2658,"stopa_name":"Adugodi Police Statiion(towards - Jn Of Hosur Road)"},"geometry":{"type":"Point","coordinates":[77.60960382,12.93983132]}},{"type":"Feature","properties":{"stop_id":11577,"stopa_name":"Adugodi Village(towards - Mico Company)"},"geometry":{"type":"Point","coordinates":[77.61465847,12.94232713]}},{"type":"Feature","properties":{"stop_id":11576,"stopa_name":"Adugodi Village(towards - Koramangala 8th Block)"},"geometry":{"type":"Point","coordinates":[77.6149267,12.94224348]}},{"type":"Feature","properties":{"stop_id":1747,"stopa_name":"Adur(towards - Ramapura)"},"geometry":{"type":"Point","coordinates":[77.70601533,13.05535554]}},{"type":"Feature","properties":{"stop_id":1699,"stopa_name":"Adur(towards - Avalahalli)"},"geometry":{"type":"Point","coordinates":[77.70571225,13.05552872]}},{"type":"Feature","properties":{"stop_id":7304,"stopa_name":"Aduru(towards - Indlawadi Cross)"},"geometry":{"type":"Point","coordinates":[77.65435517,12.73299652]}},{"type":"Feature","properties":{"stop_id":7305,"stopa_name":"Aduru(towards - Indlawadi)"},"geometry":{"type":"Point","coordinates":[77.6543954,12.73300633]}},{"type":"Feature","properties":{"stop_id":4644,"stopa_name":"AECS Dental College(towards - Doddakammanahalli)"},"geometry":{"type":"Point","coordinates":[77.59835601,12.86521846]}},{"type":"Feature","properties":{"stop_id":4643,"stopa_name":"AECS Dental College(towards - Nobonagara)"},"geometry":{"type":"Point","coordinates":[77.59827554,12.8652969]}},{"type":"Feature","properties":{"stop_id":9200,"stopa_name":"AECS Layout (Kudlu Village)(towards - Last Bus Stop)"},"geometry":{"type":"Point","coordinates":[77.64990672,12.88305649]}},{"type":"Feature","properties":{"stop_id":9201,"stopa_name":"AECS Layout (Kudlu Village)(towards - Kudlu Panchayat)"},"geometry":{"type":"Point","coordinates":[77.65018433,12.88285778]}},{"type":"Feature","properties":{"stop_id":6930,"stopa_name":"AECS Layout Cross(towards - ITPL)"},"geometry":{"type":"Point","coordinates":[77.71829903,12.96521749]}},{"type":"Feature","properties":{"stop_id":6929,"stopa_name":"AECS Layout Cross(towards - Kundalahalli Gate)"},"geometry":{"type":"Point","coordinates":[77.71841638,12.96509987]}},{"type":"Feature","properties":{"stop_id":9171,"stopa_name":"AECS Layout Last Stop(towards - Kundalahalli Gate)"},"geometry":{"type":"Point","coordinates":[77.71385193,12.96432876]}},{"type":"Feature","properties":{"stop_id":11030,"stopa_name":"AERO Space HAL(towards - LAst Stop)"},"geometry":{"type":"Point","coordinates":[77.66078644,12.97151021]}},{"type":"Feature","properties":{"stop_id":12103,"stopa_name":"Aerospace Bagalur(towards - Hoovinayakanahalli Cross)"},"geometry":{"type":"Point","coordinates":[77.73087054,13.1726268]}},{"type":"Feature","properties":{"stop_id":12102,"stopa_name":"Aerospace Bagalur"},"geometry":{"type":"Point","coordinates":[77.73076862,13.17295587]}},{"type":"Feature","properties":{"stop_id":7414,"stopa_name":"AG Export Garment(towards - Nelamangala)"},"geometry":{"type":"Point","coordinates":[77.39244618,13.12041601]}},{"type":"Feature","properties":{"stop_id":7413,"stopa_name":"AG Export Garments(towards - Madhure)"},"geometry":{"type":"Point","coordinates":[77.39235699,13.1204996]}},{"type":"Feature","properties":{"stop_id":1613,"stopa_name":"Agalakote(towards - Devanahalli)"},"geometry":{"type":"Point","coordinates":[77.7360863,13.21285389]}},{"type":"Feature","properties":{"stop_id":1601,"stopa_name":"Agalakote(towards - Budigere)"},"geometry":{"type":"Point","coordinates":[77.73608634,13.21286715]}},{"type":"Feature","properties":{"stop_id":770,"stopa_name":"Agara(towards - Hebbala)"},"geometry":{"type":"Point","coordinates":[77.6503715,12.92453611]}},{"type":"Feature","properties":{"stop_id":2969,"stopa_name":"Agara(towards - Gangasandra)"},"geometry":{"type":"Point","coordinates":[77.48705925,12.84445595]}},{"type":"Feature","properties":{"stop_id":2968,"stopa_name":"Agara(towards - Banashankari)"},"geometry":{"type":"Point","coordinates":[77.48702011,12.84473566]}},{"type":"Feature","properties":{"stop_id":941,"stopa_name":"Agara (HSR Layout 27th Main)(towards - CPWD Qtrs)"},"geometry":{"type":"Point","coordinates":[77.65175584,12.92373455]}},{"type":"Feature","properties":{"stop_id":11925,"stopa_name":"Agara (HSR Layout 27th Main)(towards - Agara Junction)"},"geometry":{"type":"Point","coordinates":[77.65168235,12.92395803]}},{"type":"Feature","properties":{"stop_id":10920,"stopa_name":"Agara (Kaggalipura)(towards - Gangasandra)"},"geometry":{"type":"Point","coordinates":[77.4861297,12.84290075]}},{"type":"Feature","properties":{"stop_id":10921,"stopa_name":"Agara (kaggalipura)(towards - Kaggalipura)"},"geometry":{"type":"Point","coordinates":[77.48628997,12.84288574]}},{"type":"Feature","properties":{"stop_id":10685,"stopa_name":"Agara (Outer Ring Road)(towards - Central Silk Board)"},"geometry":{"type":"Point","coordinates":[77.65046865,12.92422861]}},{"type":"Feature","properties":{"stop_id":2996,"stopa_name":"Agara Cross(towards - Banasshankari)"},"geometry":{"type":"Point","coordinates":[77.52202626,12.84895973]}},{"type":"Feature","properties":{"stop_id":2997,"stopa_name":"Agara Cross(towards - Kaggalipura)"},"geometry":{"type":"Point","coordinates":[77.52201896,12.84888847]}},{"type":"Feature","properties":{"stop_id":8637,"stopa_name":"Agara Gate Kanakapura Road(towards - Agara)"},"geometry":{"type":"Point","coordinates":[77.52190367,12.84891614]}},{"type":"Feature","properties":{"stop_id":11821,"stopa_name":"Agara Junction(towards - Parangipalya)"},"geometry":{"type":"Point","coordinates":[77.65000798,12.9246397]}},{"type":"Feature","properties":{"stop_id":11417,"stopa_name":"Agara Junction(towards - Jakkasandra)"},"geometry":{"type":"Point","coordinates":[77.64937833,12.92462924]}},{"type":"Feature","properties":{"stop_id":7266,"stopa_name":"Agrahara Dasarahalli(towards - Kottigepalya)"},"geometry":{"type":"Point","coordinates":[77.54073344,12.97886785]}},{"type":"Feature","properties":{"stop_id":313,"stopa_name":"Agrahara Dasarahalli(towards - Magadi Road Tollgate)"},"geometry":{"type":"Point","coordinates":[77.54296472,12.97852542]}},{"type":"Feature","properties":{"stop_id":5375,"stopa_name":"Agrahara Layout"},"geometry":{"type":"Point","coordinates":[77.62733727,13.09845303]}},{"type":"Feature","properties":{"stop_id":5374,"stopa_name":"Agrahara Layout(towards - Kogilu)"},"geometry":{"type":"Point","coordinates":[77.62732789,13.098487]}},{"type":"Feature","properties":{"stop_id":9270,"stopa_name":"Agrahara Layout Cross(towards - Sampigehalli)"},"geometry":{"type":"Point","coordinates":[77.61842027,13.09781038]}},{"type":"Feature","properties":{"stop_id":8399,"stopa_name":"Agrahara Layout Cross(towards - Agrahara Layout)"},"geometry":{"type":"Point","coordinates":[77.62768731,13.10265313]}},{"type":"Feature","properties":{"stop_id":9268,"stopa_name":"Agrahara Layout Cross(towards - Kogilu)"},"geometry":{"type":"Point","coordinates":[77.61832505,13.09787308]}},{"type":"Feature","properties":{"stop_id":10736,"stopa_name":"Agraharapalya Gate(towards - Guddahalli)"},"geometry":{"type":"Point","coordinates":[77.45337188,13.13062032]}},{"type":"Feature","properties":{"stop_id":10735,"stopa_name":"Agraharapalya Gate(towards - Hosahallipalya)"},"geometry":{"type":"Point","coordinates":[77.45348185,13.1307457]}},{"type":"Feature","properties":{"stop_id":8562,"stopa_name":"AGS Layout(towards - Vidyaniketan Public School)"},"geometry":{"type":"Point","coordinates":[77.47923374,12.95175232]}},{"type":"Feature","properties":{"stop_id":8561,"stopa_name":"AGS Layout(towards - Manganahalli)"},"geometry":{"type":"Point","coordinates":[77.47921228,12.95160855]}},{"type":"Feature","properties":{"stop_id":1966,"stopa_name":"AGs Layout Arehalli"},"geometry":{"type":"Point","coordinates":[77.53705447,12.91253339]}},{"type":"Feature","properties":{"stop_id":1995,"stopa_name":"AGs Layout Arehalli(towards - Kamakya)"},"geometry":{"type":"Point","coordinates":[77.53702523,12.91243824]}},{"type":"Feature","properties":{"stop_id":10875,"stopa_name":"AGS Layout Cross(towards - Ittamadu)"},"geometry":{"type":"Point","coordinates":[77.54087828,12.91352822]}},{"type":"Feature","properties":{"stop_id":10876,"stopa_name":"AGS Layout Cross(towards - AGS Layout)"},"geometry":{"type":"Point","coordinates":[77.54095405,12.91343867]}},{"type":"Feature","properties":{"stop_id":10767,"stopa_name":"AIR FORCE QUARTERS(towards - Shettahalli Cross)"},"geometry":{"type":"Point","coordinates":[77.52137594,13.05895983]}},{"type":"Feature","properties":{"stop_id":10768,"stopa_name":"AIR FORCE QUARTERS(towards - Shettahalli)"},"geometry":{"type":"Point","coordinates":[77.52133101,13.05893501]}},{"type":"Feature","properties":{"stop_id":1640,"stopa_name":"Airlines Dhaba Gate(towards - Tellohalli Gate)"},"geometry":{"type":"Point","coordinates":[77.740983,13.22272186]}},{"type":"Feature","properties":{"stop_id":1571,"stopa_name":"Airlines Dhaba Gate(towards - Devanahalli)"},"geometry":{"type":"Point","coordinates":[77.74080664,13.22268882]}},{"type":"Feature","properties":{"stop_id":1563,"stopa_name":"Airport Trumpet(towards - Devanahalli Bus Station)"},"geometry":{"type":"Point","coordinates":[77.65806901,13.19918532]}},{"type":"Feature","properties":{"stop_id":1639,"stopa_name":"Airport Trumpet(towards - Yelahanka)"},"geometry":{"type":"Point","coordinates":[77.65773758,13.19875076]}},{"type":"Feature","properties":{"stop_id":6975,"stopa_name":"Aishwarya Appartments(towards - Parangipalya)"},"geometry":{"type":"Point","coordinates":[77.64867827,12.90322149]}},{"type":"Feature","properties":{"stop_id":6976,"stopa_name":"Aishwarya Appartments(towards - ITI Layout)"},"geometry":{"type":"Point","coordinates":[77.64878288,12.90322281]}},{"type":"Feature","properties":{"stop_id":5164,"stopa_name":"Aiyyappaswamy Temple Madiwala(towards - Madiwala)"},"geometry":{"type":"Point","coordinates":[77.61804342,12.92488283]}},{"type":"Feature","properties":{"stop_id":51,"stopa_name":"Aiyyappaswamy Temple Madiwala(towards - Dairy Circle)"},"geometry":{"type":"Point","coordinates":[77.61791906,12.92472759]}},{"type":"Feature","properties":{"stop_id":8851,"stopa_name":"Ajjagondanahalli(towards - Varthur)"},"geometry":{"type":"Point","coordinates":[77.76840068,12.95707961]}},{"type":"Feature","properties":{"stop_id":8850,"stopa_name":"Ajjagondanahalli(towards - Harohalli)"},"geometry":{"type":"Point","coordinates":[77.76840001,12.95708745]}},{"type":"Feature","properties":{"stop_id":11940,"stopa_name":"Ajjanahalli"},"geometry":{"type":"Point","coordinates":[77.38639176,12.91665557]}},{"type":"Feature","properties":{"stop_id":11425,"stopa_name":"Ajmera Infinity Apartments(towards - Apartment)"},"geometry":{"type":"Point","coordinates":[77.64680743,12.84183906]}},{"type":"Feature","properties":{"stop_id":11426,"stopa_name":"Ajmera Infinity Apartments(towards - Wipro Gate)"},"geometry":{"type":"Point","coordinates":[77.64695361,12.84182338]}},{"type":"Feature","properties":{"stop_id":10954,"stopa_name":"Ajmmera Green Acres Apartments BGT Road"},"geometry":{"type":"Point","coordinates":[77.59343684,12.86791437]}},{"type":"Feature","properties":{"stop_id":4818,"stopa_name":"Akkayamma Betta(towards - Vidyanagara)"},"geometry":{"type":"Point","coordinates":[77.64226713,13.16164663]}},{"type":"Feature","properties":{"stop_id":5828,"stopa_name":"Akkayammana Betta(towards - Meesaganahalli)"},"geometry":{"type":"Point","coordinates":[77.64223092,13.16161725]}},{"type":"Feature","properties":{"stop_id":11923,"stopa_name":"Akki Thimmanahalli(towards - Nanjappa Circle)"},"geometry":{"type":"Point","coordinates":[77.59783097,12.96200376]}},{"type":"Feature","properties":{"stop_id":4360,"stopa_name":"Akkithimmana halli"},"geometry":{"type":"Point","coordinates":[77.59655625,12.96220111]}},{"type":"Feature","properties":{"stop_id":9072,"stopa_name":"Akkupet(towards - Kundana)"},"geometry":{"type":"Point","coordinates":[77.701267,13.25092154]}},{"type":"Feature","properties":{"stop_id":9071,"stopa_name":"Akkupete(towards - Devanahalli)"},"geometry":{"type":"Point","coordinates":[77.70110875,13.2511082]}},{"type":"Feature","properties":{"stop_id":1690,"stopa_name":"Akshayanagara(towards - B  Channasdra)"},"geometry":{"type":"Point","coordinates":[77.68353782,13.02067996]}},{"type":"Feature","properties":{"stop_id":1759,"stopa_name":"Akshayanagara(towards - TC Palya)"},"geometry":{"type":"Point","coordinates":[77.68338951,13.02072222]}},{"type":"Feature","properties":{"stop_id":11867,"stopa_name":"Akshayanagara (Tambuchettypalya)(towards - Last Bus Stop)"},"geometry":{"type":"Point","coordinates":[77.68604949,13.02070682]}},{"type":"Feature","properties":{"stop_id":10950,"stopa_name":"Aksyanagar New Town Chartered"},"geometry":{"type":"Point","coordinates":[77.61077464,12.8766295]}},{"type":"Feature","properties":{"stop_id":6876,"stopa_name":"AL Ameena Recidential School(towards - Kattagenahalli Gate)"},"geometry":{"type":"Point","coordinates":[77.80831933,13.06983227]}},{"type":"Feature","properties":{"stop_id":6875,"stopa_name":"AL Ameena Recidential School(towards - Hosakote)"},"geometry":{"type":"Point","coordinates":[77.80819058,13.06949785]}},{"type":"Feature","properties":{"stop_id":3817,"stopa_name":"Aladamara Chikkanahalli Cross(towards - Indlavadi)"},"geometry":{"type":"Point","coordinates":[77.64801078,12.72795701]}},{"type":"Feature","properties":{"stop_id":3818,"stopa_name":"Aladamara Chikkanahalli Cross(towards - Aduru)"},"geometry":{"type":"Point","coordinates":[77.64803603,12.728088]}},{"type":"Feature","properties":{"stop_id":5661,"stopa_name":"Aladamara Laggere(towards - Laggere New Bus Stand)"},"geometry":{"type":"Point","coordinates":[77.52097428,13.01324786]}},{"type":"Feature","properties":{"stop_id":5660,"stopa_name":"Aladamara Laggere(towards - Laggere Cross)"},"geometry":{"type":"Point","coordinates":[77.52090857,13.01325896]}},{"type":"Feature","properties":{"stop_id":2004,"stopa_name":"Aladamara Papareddy Palya(towards - Kottigepalya)"},"geometry":{"type":"Point","coordinates":[77.50938949,12.97501514]}},{"type":"Feature","properties":{"stop_id":2003,"stopa_name":"Aladamara Papareddy Palya(towards - Kengeri)"},"geometry":{"type":"Point","coordinates":[77.50958039,12.97511092]}},{"type":"Feature","properties":{"stop_id":6846,"stopa_name":"Alambadi(towards - Malur Road)"},"geometry":{"type":"Point","coordinates":[77.88659424,12.89272806]}},{"type":"Feature","properties":{"stop_id":6845,"stopa_name":"Alambadi(towards - Chikka Tirupathi)"},"geometry":{"type":"Point","coordinates":[77.88656138,12.89269538]}},{"type":"Feature","properties":{"stop_id":11946,"stopa_name":"Alanayakanahalli Gate(towards - Thyamagondlu)"},"geometry":{"type":"Point","coordinates":[77.32404515,13.18078088]}},{"type":"Feature","properties":{"stop_id":11947,"stopa_name":"Alanayakanahalli Gate(towards - Jakkanahalli Cross)"},"geometry":{"type":"Point","coordinates":[77.32413165,13.18088664]}},{"type":"Feature","properties":{"stop_id":12214,"stopa_name":"Alfa Collage (Chikka Gubbi)(towards - CHikkagubbi)"},"geometry":{"type":"Point","coordinates":[77.66199747,13.07702367]}},{"type":"Feature","properties":{"stop_id":12215,"stopa_name":"Alfa Collage (Chikkagubbi)(towards - Hennur Cross)"},"geometry":{"type":"Point","coordinates":[77.66201223,13.0769884]}},{"type":"Feature","properties":{"stop_id":3095,"stopa_name":"Ali  bommasandra (towards - Lakshmi  Sagara )"},"geometry":{"type":"Point","coordinates":[77.73643934,12.82025586]}},{"type":"Feature","properties":{"stop_id":3094,"stopa_name":"Ali  bommasandra (towards - Mutthanallur)"},"geometry":{"type":"Point","coordinates":[77.7364395,12.82032563]}},{"type":"Feature","properties":{"stop_id":8447,"stopa_name":"Alisda(towards - Goraguntapalya)"},"geometry":{"type":"Point","coordinates":[77.5410533,13.03398306]}},{"type":"Feature","properties":{"stop_id":8446,"stopa_name":"Alisda(towards - BEL Circle)"},"geometry":{"type":"Point","coordinates":[77.5410077,13.03401965]}},{"type":"Feature","properties":{"stop_id":12220,"stopa_name":"All India Radio (towards - Last Bus Stop)"},"geometry":{"type":"Point","coordinates":[77.59370439,12.98312353]}},{"type":"Feature","properties":{"stop_id":6889,"stopa_name":"Allagondahalli(towards - Doddaganahalli)"},"geometry":{"type":"Point","coordinates":[77.91574381,13.05412406]}},{"type":"Feature","properties":{"stop_id":6890,"stopa_name":"Allagondahalli(towards - Hosakote)"},"geometry":{"type":"Point","coordinates":[77.91572571,13.05410055]}},{"type":"Feature","properties":{"stop_id":8981,"stopa_name":"Allalasandra"},"geometry":{"type":"Point","coordinates":[77.58859746,13.08825785]}},{"type":"Feature","properties":{"stop_id":8997,"stopa_name":"Allalasandra(towards - Allalasandra Gate)"},"geometry":{"type":"Point","coordinates":[77.58866653,13.08820102]}},{"type":"Feature","properties":{"stop_id":6625,"stopa_name":"Allalasandra(towards - Hugarapalya)"},"geometry":{"type":"Point","coordinates":[77.45371789,12.73314825]}},{"type":"Feature","properties":{"stop_id":6622,"stopa_name":"Allalasandra"},"geometry":{"type":"Point","coordinates":[77.46296883,12.74377]}},{"type":"Feature","properties":{"stop_id":6621,"stopa_name":"Allalasandra"},"geometry":{"type":"Point","coordinates":[77.4631834,12.7429119]}},{"type":"Feature","properties":{"stop_id":6626,"stopa_name":"Allalasandra (Kaggalahalli)(towards - Byramangala)"},"geometry":{"type":"Point","coordinates":[77.45350599,12.73305407]}},{"type":"Feature","properties":{"stop_id":8956,"stopa_name":"Allalasandra Gate(towards - Allalasandra Main Road)"},"geometry":{"type":"Point","coordinates":[77.59330273,13.08694505]}},{"type":"Feature","properties":{"stop_id":12440,"stopa_name":"Allalasandra Gate(towards - Yelahanka Police Station)"},"geometry":{"type":"Point","coordinates":[77.59372048,13.08681377]}},{"type":"Feature","properties":{"stop_id":4975,"stopa_name":"Allalasandra Gate(towards - Yelahanka)"},"geometry":{"type":"Point","coordinates":[77.59421468,13.08540755]}},{"type":"Feature","properties":{"stop_id":5005,"stopa_name":"Allalasandra Gate(towards - Hebbala)"},"geometry":{"type":"Point","coordinates":[77.59556718,13.08737154]}},{"type":"Feature","properties":{"stop_id":12439,"stopa_name":"Allalasandra Gate(towards - Hebbala)"},"geometry":{"type":"Point","coordinates":[77.59383112,13.08679809]}},{"type":"Feature","properties":{"stop_id":10423,"stopa_name":"Allalasandra Janapriya Apartments(towards - Sheshadripuram College Yelahanka)"},"geometry":{"type":"Point","coordinates":[77.5874193,13.08802991]}},{"type":"Feature","properties":{"stop_id":10424,"stopa_name":"Allalasandra Janapriya Apartments(towards - Last Point)"},"geometry":{"type":"Point","coordinates":[77.5874535,13.08798222]}},{"type":"Feature","properties":{"stop_id":10061,"stopa_name":"Allammanapalya(towards - Madapatna)"},"geometry":{"type":"Point","coordinates":[77.36617595,12.93554418]}},{"type":"Feature","properties":{"stop_id":10060,"stopa_name":"Allammanapalya"},"geometry":{"type":"Point","coordinates":[77.36610151,12.93560169]}},{"type":"Feature","properties":{"stop_id":4594,"stopa_name":"Aluru(towards - Makali)"},"geometry":{"type":"Point","coordinates":[77.46560622,13.08490176]}},{"type":"Feature","properties":{"stop_id":4593,"stopa_name":"Aluru(towards - Aluru Palya)"},"geometry":{"type":"Point","coordinates":[77.46551491,13.0849515]}},{"type":"Feature","properties":{"stop_id":4569,"stopa_name":"Aluru Cross(towards - Aluru)"},"geometry":{"type":"Point","coordinates":[77.47472246,13.08230842]}},{"type":"Feature","properties":{"stop_id":4570,"stopa_name":"Aluru Cross(towards - Kuduregere)"},"geometry":{"type":"Point","coordinates":[77.47476447,13.08236941]}},{"type":"Feature","properties":{"stop_id":3241,"stopa_name":"Alurupalya(towards - Narasipura)"},"geometry":{"type":"Point","coordinates":[77.4705437,13.0971343]}},{"type":"Feature","properties":{"stop_id":3232,"stopa_name":"Alurupalya(towards - Aluru)"},"geometry":{"type":"Point","coordinates":[77.47062738,13.09717027]}},{"type":"Feature","properties":{"stop_id":7381,"stopa_name":"Amarajyothi Badavane"},"geometry":{"type":"Point","coordinates":[77.62916386,13.05533122]}},{"type":"Feature","properties":{"stop_id":7380,"stopa_name":"Amarajyothi Badavane(towards - End Stop)"},"geometry":{"type":"Point","coordinates":[77.62922153,13.05523977]}},{"type":"Feature","properties":{"stop_id":10250,"stopa_name":"Amarajyotinagara"},"geometry":{"type":"Point","coordinates":[77.59590313,13.03597947]}},{"type":"Feature","properties":{"stop_id":9024,"stopa_name":"Amba Bhavani Nagara(towards - MS Palya)"},"geometry":{"type":"Point","coordinates":[77.54599124,13.09712462]}},{"type":"Feature","properties":{"stop_id":9023,"stopa_name":"Amba Bhavani Nagara(towards - Veerasagara)"},"geometry":{"type":"Point","coordinates":[77.54593759,13.09720756]}},{"type":"Feature","properties":{"stop_id":1998,"stopa_name":"Ambedkar Institute of Technology(towards - Kottigepalya)"},"geometry":{"type":"Point","coordinates":[77.50498594,12.96320595]}},{"type":"Feature","properties":{"stop_id":548,"stopa_name":"Ambedkar Institute of Technology(towards - Kengeri)"},"geometry":{"type":"Point","coordinates":[77.50517875,12.96309009]}},{"type":"Feature","properties":{"stop_id":7386,"stopa_name":"Ambedkar Medical College Shampura(towards - Periyarnagara Circle)"},"geometry":{"type":"Point","coordinates":[77.61258513,13.02336709]}},{"type":"Feature","properties":{"stop_id":7387,"stopa_name":"Ambedkar Medical College Shampura(towards - Last Bus Stop)"},"geometry":{"type":"Point","coordinates":[77.61248589,13.02332136]}},{"type":"Feature","properties":{"stop_id":2128,"stopa_name":"Ambedkar nagar"},"geometry":{"type":"Point","coordinates":[77.71313221,12.89901684]}},{"type":"Feature","properties":{"stop_id":3631,"stopa_name":"Ambedkarnagara"},"geometry":{"type":"Point","coordinates":[77.71326989,12.89911179]}},{"type":"Feature","properties":{"stop_id":3960,"stopa_name":"Ambika School(towards - Thyamagondlu)"},"geometry":{"type":"Point","coordinates":[77.33712117,13.15775238]}},{"type":"Feature","properties":{"stop_id":3961,"stopa_name":"Ambika School(towards - T Begur)"},"geometry":{"type":"Point","coordinates":[77.33718624,13.15774722]}},{"type":"Feature","properties":{"stop_id":1126,"stopa_name":"AMC Collage(towards - Kalkere)"},"geometry":{"type":"Point","coordinates":[77.58778,12.8299043]}},{"type":"Feature","properties":{"stop_id":101,"stopa_name":"AMC College(towards - Bannerughatta National Park)"},"geometry":{"type":"Point","coordinates":[77.58772479,12.82948817]}},{"type":"Feature","properties":{"stop_id":11414,"stopa_name":"AMD India Pvt Ltd"},"geometry":{"type":"Point","coordinates":[77.72545785,12.97502699]}},{"type":"Feature","properties":{"stop_id":11955,"stopa_name":"Amma Ashrama(towards - Nagemane)"},"geometry":{"type":"Point","coordinates":[77.48667687,12.94608156]}},{"type":"Feature","properties":{"stop_id":8565,"stopa_name":"Amma Ashrama Cross(towards - Bangalore University Quarters)"},"geometry":{"type":"Point","coordinates":[77.48880923,12.94950691]}},{"type":"Feature","properties":{"stop_id":8564,"stopa_name":"Amma Ashrama Cross(towards - Vidyaniketan Public School)"},"geometry":{"type":"Point","coordinates":[77.48907879,12.94944359]}},{"type":"Feature","properties":{"stop_id":904,"stopa_name":"Ammruthahalli(towards - Byatarayanapura)"},"geometry":{"type":"Point","coordinates":[77.60078122,13.06568309]}},{"type":"Feature","properties":{"stop_id":1743,"stopa_name":"Amogha Layout(towards - Avalahalli)"},"geometry":{"type":"Point","coordinates":[77.71817603,13.07507262]}},{"type":"Feature","properties":{"stop_id":1717,"stopa_name":"Amogha Layout(towards - Marsadra)"},"geometry":{"type":"Point","coordinates":[77.7180644,13.07508963]}},{"type":"Feature","properties":{"stop_id":1926,"stopa_name":"Amritha Ayurvedic Hospital(towards - CRPF)"},"geometry":{"type":"Point","coordinates":[77.5472148,13.12485154]}},{"type":"Feature","properties":{"stop_id":1924,"stopa_name":"Amritha Ayurvedic Hospital(towards - Shivakote)"},"geometry":{"type":"Point","coordinates":[77.54725343,13.12470635]}},{"type":"Feature","properties":{"stop_id":6980,"stopa_name":"Amritha Engineering College(towards - Central Jail)"},"geometry":{"type":"Point","coordinates":[77.6751966,12.89679698]}},{"type":"Feature","properties":{"stop_id":6979,"stopa_name":"Amritha Engineering College(towards - Kasavanahalli)"},"geometry":{"type":"Point","coordinates":[77.67517112,12.89688914]}},{"type":"Feature","properties":{"stop_id":4945,"stopa_name":"Amrutha Nagara Canara Bank(towards - Dasarahalli Hebbal)"},"geometry":{"type":"Point","coordinates":[77.59969177,13.05518008]}},{"type":"Feature","properties":{"stop_id":4944,"stopa_name":"Amrutha Nagara Canara Bank(towards - Military Dairy Farm)"},"geometry":{"type":"Point","coordinates":[77.59974155,13.05505786]}},{"type":"Feature","properties":{"stop_id":4935,"stopa_name":"Amruthahalli(towards - Jakkur Layout)"},"geometry":{"type":"Point","coordinates":[77.60080435,13.06578074]}},{"type":"Feature","properties":{"stop_id":4943,"stopa_name":"Amruthanagara(towards - Military Dairy Form)"},"geometry":{"type":"Point","coordinates":[77.59873693,13.0578156]}},{"type":"Feature","properties":{"stop_id":4942,"stopa_name":"Amruthanagara Hebbala"},"geometry":{"type":"Point","coordinates":[77.59856466,13.05772625]}},{"type":"Feature","properties":{"stop_id":3848,"stopa_name":"Amruthnagara(towards - Anjanapura)"},"geometry":{"type":"Point","coordinates":[77.54984919,12.83967629]}},{"type":"Feature","properties":{"stop_id":3850,"stopa_name":"Amruthnagara(towards - Kulumepalya)"},"geometry":{"type":"Point","coordinates":[77.5500031,12.8393857]}},{"type":"Feature","properties":{"stop_id":1730,"stopa_name":"Anagalapura  Gate"},"geometry":{"type":"Point","coordinates":[77.67885232,13.0730607]}},{"type":"Feature","properties":{"stop_id":4375,"stopa_name":"Anagalipura(towards - Dodda Gubbi)"},"geometry":{"type":"Point","coordinates":[77.68233597,13.06841618]}},{"type":"Feature","properties":{"stop_id":4376,"stopa_name":"Anagalipura (towards - Anagalipura Cross )"},"geometry":{"type":"Point","coordinates":[77.68241376,13.06838221]}},{"type":"Feature","properties":{"stop_id":5517,"stopa_name":"Anagalipura gate"},"geometry":{"type":"Point","coordinates":[77.67888397,13.07303285]}},{"type":"Feature","properties":{"stop_id":222,"stopa_name":"Anand Rao Circle(towards - Maharanis College)"},"geometry":{"type":"Point","coordinates":[77.57468557,12.9811145]}},{"type":"Feature","properties":{"stop_id":12094,"stopa_name":"Ananda Nagara(towards - Belagumba)"},"geometry":{"type":"Point","coordinates":[77.24208891,12.98379979]}},{"type":"Feature","properties":{"stop_id":8322,"stopa_name":"Ananda Rao Circle(towards - Malleshwaram)"},"geometry":{"type":"Point","coordinates":[77.57462181,12.98115609]}},{"type":"Feature","properties":{"stop_id":5010,"stopa_name":"Ananda Rao Circle(towards - KR Market)"},"geometry":{"type":"Point","coordinates":[77.57698417,12.98122472]}},{"type":"Feature","properties":{"stop_id":12093,"stopa_name":"Anandanagara(towards - Hospete gate)"},"geometry":{"type":"Point","coordinates":[77.24218078,12.98385729]}},{"type":"Feature","properties":{"stop_id":11528,"stopa_name":"Anandanagara Hebbala"},"geometry":{"type":"Point","coordinates":[77.59136349,13.03299008]}},{"type":"Feature","properties":{"stop_id":1689,"stopa_name":"Anandapura(towards - TC Palya)"},"geometry":{"type":"Point","coordinates":[77.69285292,13.02422515]}},{"type":"Feature","properties":{"stop_id":1761,"stopa_name":"Anandapura(towards - B Channasandra)"},"geometry":{"type":"Point","coordinates":[77.69270401,13.02409883]}},{"type":"Feature","properties":{"stop_id":5717,"stopa_name":"Ananthapura(towards - Ramagondanahalli)"},"geometry":{"type":"Point","coordinates":[77.56587111,13.11521247]}},{"type":"Feature","properties":{"stop_id":1913,"stopa_name":"Ananthapura(towards - Anantapura Gate)"},"geometry":{"type":"Point","coordinates":[77.56771772,13.11449726]}},{"type":"Feature","properties":{"stop_id":5714,"stopa_name":"Ananthapura Gate(towards - Anantapura)"},"geometry":{"type":"Point","coordinates":[77.57867396,13.1147044]}},{"type":"Feature","properties":{"stop_id":5716,"stopa_name":"Ananthapura Gate(towards - Yelahanka NES/Doddaballapura)"},"geometry":{"type":"Point","coordinates":[77.57876516,13.11478275]}},{"type":"Feature","properties":{"stop_id":1891,"stopa_name":"Ananthapura Gate(towards - Yelahanka NES)"},"geometry":{"type":"Point","coordinates":[77.57902536,13.11485706]}},{"type":"Feature","properties":{"stop_id":1802,"stopa_name":"Ananthapura Gate(towards - Doddaballapura)"},"geometry":{"type":"Point","coordinates":[77.57881815,13.11497453]}},{"type":"Feature","properties":{"stop_id":2256,"stopa_name":"Anche Muskuru(towards - Dunnasandra Cross)"},"geometry":{"type":"Point","coordinates":[77.86779755,12.90451534]}},{"type":"Feature","properties":{"stop_id":2218,"stopa_name":"Anche Muskuru(towards - Chikkathrupathi)"},"geometry":{"type":"Point","coordinates":[77.867907,12.90460385]}},{"type":"Feature","properties":{"stop_id":430,"stopa_name":"Anchepalya(towards - Nelamangala)"},"geometry":{"type":"Point","coordinates":[77.47887503,13.05506122]}},{"type":"Feature","properties":{"stop_id":455,"stopa_name":"Anchepalya(towards - Jalahalli Cross)"},"geometry":{"type":"Point","coordinates":[77.4798162,13.05526591]}},{"type":"Feature","properties":{"stop_id":959,"stopa_name":"Anchepalya(towards - Bidadi)"},"geometry":{"type":"Point","coordinates":[77.45777966,12.89245654]}},{"type":"Feature","properties":{"stop_id":1013,"stopa_name":"Anchepalya(towards - Kengeri)"},"geometry":{"type":"Point","coordinates":[77.45750617,12.89246672]}},{"type":"Feature","properties":{"stop_id":9287,"stopa_name":"Anchipura(towards - Anchipura Colony)"},"geometry":{"type":"Point","coordinates":[77.43199937,12.77070888]}},{"type":"Feature","properties":{"stop_id":9286,"stopa_name":"Anchipura(towards - Anchipura Cross)"},"geometry":{"type":"Point","coordinates":[77.43216433,12.76987508]}},{"type":"Feature","properties":{"stop_id":6256,"stopa_name":"Anchipura Colony"},"geometry":{"type":"Point","coordinates":[77.43857481,12.76764308]}},{"type":"Feature","properties":{"stop_id":6255,"stopa_name":"Anchipura Colony(towards - Anchipura)"},"geometry":{"type":"Point","coordinates":[77.43854396,12.76758684]}},{"type":"Feature","properties":{"stop_id":6617,"stopa_name":"Anchipura Cross(towards - Shyanumangala)"},"geometry":{"type":"Point","coordinates":[77.44117856,12.79002102]}},{"type":"Feature","properties":{"stop_id":6616,"stopa_name":"Anchipura Cross(towards - Kodiyala)"},"geometry":{"type":"Point","coordinates":[77.44118929,12.79007268]}},{"type":"Feature","properties":{"stop_id":6146,"stopa_name":"Andhrahalli Gate(towards - Budigere Cross)"},"geometry":{"type":"Point","coordinates":[77.74529278,13.11539664]}},{"type":"Feature","properties":{"stop_id":6144,"stopa_name":"Andhrahalli Gate(towards - Budigere)"},"geometry":{"type":"Point","coordinates":[77.74525523,13.11541492]}},{"type":"Feature","properties":{"stop_id":816,"stopa_name":"Andrahalli(towards - Herohalli)"},"geometry":{"type":"Point","coordinates":[77.48480746,13.00804629]}},{"type":"Feature","properties":{"stop_id":812,"stopa_name":"Andrahalli(towards - Thigalarapalya)"},"geometry":{"type":"Point","coordinates":[77.48476578,13.00799641]}},{"type":"Feature","properties":{"stop_id":811,"stopa_name":"Andrahalli Govt School(towards - Andrahalli)"},"geometry":{"type":"Point","coordinates":[77.48292203,13.00953829]}},{"type":"Feature","properties":{"stop_id":817,"stopa_name":"Andrahalli Govt School(towards - Thiglarapalya)"},"geometry":{"type":"Point","coordinates":[77.48290149,13.00947448]}},{"type":"Feature","properties":{"stop_id":12092,"stopa_name":"Anehalla(towards - Hospete Gate)"},"geometry":{"type":"Point","coordinates":[77.2414016,12.97985056]}},{"type":"Feature","properties":{"stop_id":12091,"stopa_name":"Anehalla(towards - Belagumba)"},"geometry":{"type":"Point","coordinates":[77.24132113,12.97983096]}},{"type":"Feature","properties":{"stop_id":3340,"stopa_name":"Anekal Bus Stand(towards - Last Bus Stop)"},"geometry":{"type":"Point","coordinates":[77.69630613,12.7093189]}},{"type":"Feature","properties":{"stop_id":3344,"stopa_name":"Anekal Bus Stand(towards - Anelkal Circle)"},"geometry":{"type":"Point","coordinates":[77.69651532,12.70944576]}},{"type":"Feature","properties":{"stop_id":7153,"stopa_name":"Anekal Circle(towards - Anekal)"},"geometry":{"type":"Point","coordinates":[77.70015456,12.71675106]}},{"type":"Feature","properties":{"stop_id":7154,"stopa_name":"Anekal Circle(towards - Kaval Hosahalli)"},"geometry":{"type":"Point","coordinates":[77.70010092,12.71675368]}},{"type":"Feature","properties":{"stop_id":2648,"stopa_name":"Anepalya(towards - Adugodi)"},"geometry":{"type":"Point","coordinates":[77.60543338,12.95283208]}},{"type":"Feature","properties":{"stop_id":2650,"stopa_name":"Anepalya"},"geometry":{"type":"Point","coordinates":[77.60876814,12.95194039]}},{"type":"Feature","properties":{"stop_id":2649,"stopa_name":"Anepalya(towards - Shivajinagara Bus Station)"},"geometry":{"type":"Point","coordinates":[77.60524959,12.95301615]}},{"type":"Feature","properties":{"stop_id":2086,"stopa_name":"Angalaparameshwari Temple(towards - Sirsi Circle)"},"geometry":{"type":"Point","coordinates":[77.56603528,12.97463907]}},{"type":"Feature","properties":{"stop_id":10651,"stopa_name":"Anghatta Cross(towards - Nandi Cross)"},"geometry":{"type":"Point","coordinates":[77.69559681,13.36670879]}},{"type":"Feature","properties":{"stop_id":10652,"stopa_name":"Anghatta Cross(towards - Karahalli Cross)"},"geometry":{"type":"Point","coordinates":[77.69572556,13.3667062]}},{"type":"Feature","properties":{"stop_id":3484,"stopa_name":"Anjan Vidya Kendra School(towards - Mutkur)"},"geometry":{"type":"Point","coordinates":[77.8244009,12.92413874]}},{"type":"Feature","properties":{"stop_id":3485,"stopa_name":"Anjan Vidya Kendra School(towards - Tattnur)"},"geometry":{"type":"Point","coordinates":[77.82438247,12.92424287]}},{"type":"Feature","properties":{"stop_id":5135,"stopa_name":"Anjananagara(towards - Gollarahatti)"},"geometry":{"type":"Point","coordinates":[77.48841561,12.9860887]}},{"type":"Feature","properties":{"stop_id":305,"stopa_name":"Anjananagara(towards - Sunkadakatte)"},"geometry":{"type":"Point","coordinates":[77.48814919,12.98618371]}},{"type":"Feature","properties":{"stop_id":1280,"stopa_name":"Anjanapura(towards - Konanakunte)"},"geometry":{"type":"Point","coordinates":[77.56383263,12.86201124]}},{"type":"Feature","properties":{"stop_id":10854,"stopa_name":"Anjanapura(towards - Kembathalli)"},"geometry":{"type":"Point","coordinates":[77.56390839,12.86196748]}},{"type":"Feature","properties":{"stop_id":1268,"stopa_name":"Anjanapura(towards - Amruthnagara)"},"geometry":{"type":"Point","coordinates":[77.56378981,12.86196984]}},{"type":"Feature","properties":{"stop_id":12503,"stopa_name":"Anjanapura 10th Block(towards - Anjanapura)"},"geometry":{"type":"Point","coordinates":[77.57123888,12.85547524]}},{"type":"Feature","properties":{"stop_id":12504,"stopa_name":"Anjanapura 10th Block(towards - Kembathanahalli)"},"geometry":{"type":"Point","coordinates":[77.57149771,12.85545432]}},{"type":"Feature","properties":{"stop_id":1277,"stopa_name":"Anjanapura Cross(towards - Konanakunte)"},"geometry":{"type":"Point","coordinates":[77.56056922,12.86166018]}},{"type":"Feature","properties":{"stop_id":1271,"stopa_name":"Anjanapura cross(towards - Amruthnagara)"},"geometry":{"type":"Point","coordinates":[77.56091309,12.86180431]}},{"type":"Feature","properties":{"stop_id":1469,"stopa_name":"Anjaneya Temple"},"geometry":{"type":"Point","coordinates":[77.70035418,12.71738993]}},{"type":"Feature","properties":{"stop_id":1506,"stopa_name":"Anjaneya Temple"},"geometry":{"type":"Point","coordinates":[77.70034576,12.71732972]}},{"type":"Feature","properties":{"stop_id":1417,"stopa_name":"Anjaneya Temple Bidaragupe(towards - Attibele)"},"geometry":{"type":"Point","coordinates":[77.78252374,12.79977059]}},{"type":"Feature","properties":{"stop_id":8744,"stopa_name":"Anjaneya Temple Bidaraguppe(towards - Sarjapura)"},"geometry":{"type":"Point","coordinates":[77.78252453,12.7998982]}},{"type":"Feature","properties":{"stop_id":4093,"stopa_name":"Anjaneya Temple Madhure(towards - Chikka Madhure)"},"geometry":{"type":"Point","coordinates":[77.44493005,13.20989449]}},{"type":"Feature","properties":{"stop_id":4094,"stopa_name":"Anjaneya Temple Madhure(towards - Channadevi Agrahara)"},"geometry":{"type":"Point","coordinates":[77.44514115,13.20998466]}},{"type":"Feature","properties":{"stop_id":442,"stopa_name":"Anjaneya Temple Nelamangala (towards - Jalahalli Cross)"},"geometry":{"type":"Point","coordinates":[77.39777114,13.09739405]}},{"type":"Feature","properties":{"stop_id":439,"stopa_name":"Anjaneya Temple Nelamangala(towards - Nelamangala)"},"geometry":{"type":"Point","coordinates":[77.39782978,13.09733054]}},{"type":"Feature","properties":{"stop_id":818,"stopa_name":"Anjaneya Temple Thigalarapalya(towards - Thigalarapalya)"},"geometry":{"type":"Point","coordinates":[77.48339039,13.01375915]}},{"type":"Feature","properties":{"stop_id":810,"stopa_name":"Anjaneya Temple Thigalarapalya(towards - Andrahalli)"},"geometry":{"type":"Point","coordinates":[77.48343719,13.01369315]}},{"type":"Feature","properties":{"stop_id":1615,"stopa_name":"Anjinaya Temple(towards - Bychapura)"},"geometry":{"type":"Point","coordinates":[77.71297704,13.23508433]}},{"type":"Feature","properties":{"stop_id":8718,"stopa_name":"Anjinayya Temple(towards - Dodda Nallala)"},"geometry":{"type":"Point","coordinates":[77.88676322,13.10328859]}},{"type":"Feature","properties":{"stop_id":8719,"stopa_name":"Anjinayya Temple(towards - Mylapura)"},"geometry":{"type":"Point","coordinates":[77.88673371,13.10322589]}},{"type":"Feature","properties":{"stop_id":5891,"stopa_name":"Anjinya Temple(towards - Devanahalli)"},"geometry":{"type":"Point","coordinates":[77.71293461,13.23501604]}},{"type":"Feature","properties":{"stop_id":6376,"stopa_name":"Ankanahalli(towards - Sulibele)"},"geometry":{"type":"Point","coordinates":[77.79845769,13.20433177]}},{"type":"Feature","properties":{"stop_id":6375,"stopa_name":"Ankanahalli(towards - I Basapura)"},"geometry":{"type":"Point","coordinates":[77.79838259,13.20433177]}},{"type":"Feature","properties":{"stop_id":4062,"stopa_name":"Ankegowdanadoddi.D"},"geometry":{"type":"Point","coordinates":[77.51729914,12.70671323]}},{"type":"Feature","properties":{"stop_id":4061,"stopa_name":"Ankegowdanadoddi.U"},"geometry":{"type":"Point","coordinates":[77.51727299,12.70674659]}},{"type":"Feature","properties":{"stop_id":6832,"stopa_name":"Annagalpura Cross"},"geometry":{"type":"Point","coordinates":[77.68671066,13.06177188]}},{"type":"Feature","properties":{"stop_id":6831,"stopa_name":"Annagalpura Cross"},"geometry":{"type":"Point","coordinates":[77.68666774,13.06171179]}},{"type":"Feature","properties":{"stop_id":6276,"stopa_name":"Annahalli"},"geometry":{"type":"Point","coordinates":[77.38370485,12.69966202]}},{"type":"Feature","properties":{"stop_id":6275,"stopa_name":"Annahalli"},"geometry":{"type":"Point","coordinates":[77.3836425,12.69967249]}},{"type":"Feature","properties":{"stop_id":2016,"stopa_name":"Annapoorneshwari 3rd Main Road"},"geometry":{"type":"Point","coordinates":[77.50428176,12.97813873]}},{"type":"Feature","properties":{"stop_id":2018,"stopa_name":"Annapoorneshwari 3rd Main Road"},"geometry":{"type":"Point","coordinates":[77.50425403,12.9781881]}},{"type":"Feature","properties":{"stop_id":2010,"stopa_name":"Annapoorneshwari Nagara(towards - Pappareddypalya)"},"geometry":{"type":"Point","coordinates":[77.50687179,12.98055641]}},{"type":"Feature","properties":{"stop_id":2012,"stopa_name":"Annapoorneshwari Nagara(towards - Sunkkadakatte)"},"geometry":{"type":"Point","coordinates":[77.50671759,12.98041988]}},{"type":"Feature","properties":{"stop_id":10740,"stopa_name":"Annapoorneshwari Nagara(towards - BDA Complex)"},"geometry":{"type":"Point","coordinates":[77.50691414,12.98079674]}},{"type":"Feature","properties":{"stop_id":10739,"stopa_name":"Annapoorneshwari Nagara(towards - Sunkadakatte)"},"geometry":{"type":"Point","coordinates":[77.50674784,12.98078236]}},{"type":"Feature","properties":{"stop_id":11423,"stopa_name":"Annapoorneshwarinagara Cross(towards - Byadarahalli)"},"geometry":{"type":"Point","coordinates":[77.49653935,12.96993606]}},{"type":"Feature","properties":{"stop_id":11422,"stopa_name":"Annapoorneshwarinagara Cross(towards - AIT)"},"geometry":{"type":"Point","coordinates":[77.4965816,12.96999749]}},{"type":"Feature","properties":{"stop_id":10730,"stopa_name":"Annapoorneswarana Nagara"},"geometry":{"type":"Point","coordinates":[77.51711189,13.00095121]}},{"type":"Feature","properties":{"stop_id":2023,"stopa_name":"Annaporneshwari nagara"},"geometry":{"type":"Point","coordinates":[77.4969665,12.9720322]}},{"type":"Feature","properties":{"stop_id":9732,"stopa_name":"Annasandrapalya(towards - HAL Main Gate)"},"geometry":{"type":"Point","coordinates":[77.67249763,12.96443857]}},{"type":"Feature","properties":{"stop_id":9731,"stopa_name":"Annasandrapalya(towards - Basavanagara)"},"geometry":{"type":"Point","coordinates":[77.67248422,12.96449672]}},{"type":"Feature","properties":{"stop_id":6932,"stopa_name":"Annasandrapalya Cross(towards - NGEF)"},"geometry":{"type":"Point","coordinates":[77.66597182,12.96054131]}},{"type":"Feature","properties":{"stop_id":6931,"stopa_name":"Annasandrapalya Cross(towards - HAL)"},"geometry":{"type":"Point","coordinates":[77.66616896,12.96034527]}},{"type":"Feature","properties":{"stop_id":9954,"stopa_name":"Annekaranahalli(towards - Athimgere Gate)"},"geometry":{"type":"Point","coordinates":[77.27010392,12.86966959]}},{"type":"Feature","properties":{"stop_id":9955,"stopa_name":"Annekaranahalli"},"geometry":{"type":"Point","coordinates":[77.27006838,12.86961403]}},{"type":"Feature","properties":{"stop_id":5862,"stopa_name":"Anneswara(towards - Yarappanahalli )"},"geometry":{"type":"Point","coordinates":[77.7105441,13.21529591]}},{"type":"Feature","properties":{"stop_id":5861,"stopa_name":"Anneswara(towards - Baichapura )"},"geometry":{"type":"Point","coordinates":[77.71057829,13.21534683]}},{"type":"Feature","properties":{"stop_id":8578,"stopa_name":"Anubhavanagara(towards - Moodalapalya)"},"geometry":{"type":"Point","coordinates":[77.52381541,12.96783326]}},{"type":"Feature","properties":{"stop_id":8576,"stopa_name":"Anubhavanagara(towards - Bande maramma Bus Station)"},"geometry":{"type":"Point","coordinates":[77.52379597,12.96778359]}},{"type":"Feature","properties":{"stop_id":5237,"stopa_name":"Anugondanahalli Cross(towards - Hope Form)"},"geometry":{"type":"Point","coordinates":[77.8158322,12.95890763]}},{"type":"Feature","properties":{"stop_id":5236,"stopa_name":"Anugondanahalli Cross(towards - Chikkathrupathi)"},"geometry":{"type":"Point","coordinates":[77.81600386,12.95900435]}},{"type":"Feature","properties":{"stop_id":2205,"stopa_name":"Anugundnahalli(towards - Anagundnahalli Cross)"},"geometry":{"type":"Point","coordinates":[77.81526806,12.95725531]}},{"type":"Feature","properties":{"stop_id":2269,"stopa_name":"Anugundnahalli(towards - Mutkur)"},"geometry":{"type":"Point","coordinates":[77.81546401,12.95716305]}},{"type":"Feature","properties":{"stop_id":6532,"stopa_name":"Anupahalli"},"geometry":{"type":"Point","coordinates":[77.85407513,13.22426384]}},{"type":"Feature","properties":{"stop_id":1844,"stopa_name":"Aparel Park(towards - Rajanukunte)"},"geometry":{"type":"Point","coordinates":[77.55204223,13.27231478]}},{"type":"Feature","properties":{"stop_id":1825,"stopa_name":"Aparel Park(towards - Doddaballapura)"},"geometry":{"type":"Point","coordinates":[77.5519775,13.27261338]}},{"type":"Feature","properties":{"stop_id":10909,"stopa_name":"APCO Factory(towards - Bannigiri)"},"geometry":{"type":"Point","coordinates":[77.47043878,12.76194623]}},{"type":"Feature","properties":{"stop_id":10908,"stopa_name":"APCO Factory(towards - Thokathimmana Doddi Cross)"},"geometry":{"type":"Point","coordinates":[77.47036368,12.76209272]}},{"type":"Feature","properties":{"stop_id":1572,"stopa_name":"Apex Bank(towards - Maruthi Circle)"},"geometry":{"type":"Point","coordinates":[77.55590318,12.94181404]}},{"type":"Feature","properties":{"stop_id":1317,"stopa_name":"Apex Bank(towards - Girinagara)"},"geometry":{"type":"Point","coordinates":[77.55556899,12.94176426]}},{"type":"Feature","properties":{"stop_id":835,"stopa_name":"APJ Statue(towards - DRDO)"},"geometry":{"type":"Point","coordinates":[77.65439703,12.9800052]}},{"type":"Feature","properties":{"stop_id":834,"stopa_name":"APJ Statue(towards - BEML)"},"geometry":{"type":"Point","coordinates":[77.65435972,12.97982018]}},{"type":"Feature","properties":{"stop_id":3255,"stopa_name":"APMC Yard(towards - Mattahalli)"},"geometry":{"type":"Point","coordinates":[77.4438423,13.10483981]}},{"type":"Feature","properties":{"stop_id":3252,"stopa_name":"APMC Yard(towards - Makali)"},"geometry":{"type":"Point","coordinates":[77.44396301,13.10493909]}},{"type":"Feature","properties":{"stop_id":6424,"stopa_name":"Appasandra(towards - Ummlu)"},"geometry":{"type":"Point","coordinates":[77.89668984,13.06314991]}},{"type":"Feature","properties":{"stop_id":6891,"stopa_name":"Appasandra(towards - Hosakote)"},"geometry":{"type":"Point","coordinates":[77.89661765,13.0630809]}},{"type":"Feature","properties":{"stop_id":11176,"stopa_name":"Applo Pharmcy JPF(towards - RV Dental College)"},"geometry":{"type":"Point","coordinates":[77.58176051,12.91043671]}},{"type":"Feature","properties":{"stop_id":1224,"stopa_name":"APR Kalyana Mantapa(towards - Begur)"},"geometry":{"type":"Point","coordinates":[77.62596209,12.89326182]}},{"type":"Feature","properties":{"stop_id":1162,"stopa_name":"APR Kalyana Mantapa"},"geometry":{"type":"Point","coordinates":[77.62584635,12.89325102]}},{"type":"Feature","properties":{"stop_id":1087,"stopa_name":"APS College(towards - Kaggalipura)"},"geometry":{"type":"Point","coordinates":[77.499769,12.78281196]}},{"type":"Feature","properties":{"stop_id":1059,"stopa_name":"APS College(towards - Somanahalli Gate)"},"geometry":{"type":"Point","coordinates":[77.49975617,12.78262357]}},{"type":"Feature","properties":{"stop_id":1462,"stopa_name":"AR complex stop maruthi nagar"},"geometry":{"type":"Point","coordinates":[77.6151775,12.92514406]}},{"type":"Feature","properties":{"stop_id":673,"stopa_name":"Arabic College(towards - Govindapura Cross)"},"geometry":{"type":"Point","coordinates":[77.620835,13.02993]}},{"type":"Feature","properties":{"stop_id":684,"stopa_name":"Arabic College(towards - Kadugondanhalli Railway Gate)"},"geometry":{"type":"Point","coordinates":[77.62103069,13.03034254]}},{"type":"Feature","properties":{"stop_id":2533,"stopa_name":"Aradeshanahalli(towards - Bettanahalli)"},"geometry":{"type":"Point","coordinates":[77.56373363,13.22253221]}},{"type":"Feature","properties":{"stop_id":2534,"stopa_name":"Aradeshanahalli(towards - Suradevapura Cross)"},"geometry":{"type":"Point","coordinates":[77.56354988,13.22242429]}},{"type":"Feature","properties":{"stop_id":4428,"stopa_name":"Aradeshanahalli Gate(towards - Doddaballapura)"},"geometry":{"type":"Point","coordinates":[77.55252983,13.21641266]}},{"type":"Feature","properties":{"stop_id":10077,"stopa_name":"Aradeshanahalli Gate(towards - MES College)"},"geometry":{"type":"Point","coordinates":[77.55265251,13.21656299]}},{"type":"Feature","properties":{"stop_id":10080,"stopa_name":"Aradeshanahalli Gate(towards - Suradevapura Cross)"},"geometry":{"type":"Point","coordinates":[77.55263708,13.21646311]}},{"type":"Feature","properties":{"stop_id":2528,"stopa_name":"Aradeshanahalli Gate(towards - Rajanukunte)"},"geometry":{"type":"Point","coordinates":[77.55254879,13.21650657]}},{"type":"Feature","properties":{"stop_id":8437,"stopa_name":"Arahalli(towards - Bannimangala)"},"geometry":{"type":"Point","coordinates":[77.56629556,13.27074059]}},{"type":"Feature","properties":{"stop_id":4420,"stopa_name":"Arakere Byrapura"},"geometry":{"type":"Point","coordinates":[77.53803049,13.20030023]}},{"type":"Feature","properties":{"stop_id":4419,"stopa_name":"Arakere Byrapura(towards - Byrapura)"},"geometry":{"type":"Point","coordinates":[77.53796299,13.20015497]}},{"type":"Feature","properties":{"stop_id":86,"stopa_name":"Arakere Gate(towards - BPL Stop)"},"geometry":{"type":"Point","coordinates":[77.59822328,12.89059818]}},{"type":"Feature","properties":{"stop_id":4890,"stopa_name":"Aralimara (Industrial Area) Rajajinagara(towards - ESI)"},"geometry":{"type":"Point","coordinates":[77.54887193,12.97827911]}},{"type":"Feature","properties":{"stop_id":4889,"stopa_name":"Aralimara (Industrial Area) Rajajinagara(towards - Vijayanagara)"},"geometry":{"type":"Point","coordinates":[77.54916698,12.97866659]}},{"type":"Feature","properties":{"stop_id":12051,"stopa_name":"Aralimara (Ullal)(towards - Muddaianapalya)"},"geometry":{"type":"Point","coordinates":[77.48727836,12.95768823]}},{"type":"Feature","properties":{"stop_id":12052,"stopa_name":"Aralimara (Ullalu)(towards - Ullalu)"},"geometry":{"type":"Point","coordinates":[77.48731054,12.95767582]}},{"type":"Feature","properties":{"stop_id":6602,"stopa_name":"Aralimara Sunkadakatte(towards - Sunkkdatte)"},"geometry":{"type":"Point","coordinates":[77.50465103,12.9920346]}},{"type":"Feature","properties":{"stop_id":9956,"stopa_name":"Aralimaradapalya"},"geometry":{"type":"Point","coordinates":[77.36467659,12.92969562]}},{"type":"Feature","properties":{"stop_id":11893,"stopa_name":"Aralimaradapalya Cross(towards - Madapatna)"},"geometry":{"type":"Point","coordinates":[77.36000083,12.92656313]}},{"type":"Feature","properties":{"stop_id":9959,"stopa_name":"Aralimaradapalya Cross(towards - Huluvenahalli)"},"geometry":{"type":"Point","coordinates":[77.36003235,12.9266566]}},{"type":"Feature","properties":{"stop_id":4084,"stopa_name":"Aralumallige(towards - Doddaballapura)"},"geometry":{"type":"Point","coordinates":[77.50918592,13.27367374]}},{"type":"Feature","properties":{"stop_id":4085,"stopa_name":"Aralumallige(towards - Madhure)"},"geometry":{"type":"Point","coordinates":[77.50912342,13.27362133]}},{"type":"Feature","properties":{"stop_id":9143,"stopa_name":"Aralumallige Cross(towards - Aralumallige)"},"geometry":{"type":"Point","coordinates":[77.511608,13.26701917]}},{"type":"Feature","properties":{"stop_id":4083,"stopa_name":"Aralumallige Cross(towards - Gowdahalli)"},"geometry":{"type":"Point","coordinates":[77.51177853,13.26693095]}},{"type":"Feature","properties":{"stop_id":9524,"stopa_name":"Arasahalli(towards - Upasapura)"},"geometry":{"type":"Point","coordinates":[77.88858712,12.96484436]}},{"type":"Feature","properties":{"stop_id":6373,"stopa_name":"Arasahalli(towards - Pura)"},"geometry":{"type":"Point","coordinates":[77.88863181,12.96478074]}},{"type":"Feature","properties":{"stop_id":6372,"stopa_name":"Arasanahalli(towards - I Basapura)"},"geometry":{"type":"Point","coordinates":[77.79732326,13.2015232]}},{"type":"Feature","properties":{"stop_id":6371,"stopa_name":"Arasanahalli(towards - Sulibele)"},"geometry":{"type":"Point","coordinates":[77.79737409,13.20148282]}},{"type":"Feature","properties":{"stop_id":3541,"stopa_name":"Arasanahalli cross stop (down)"},"geometry":{"type":"Point","coordinates":[77.64361021,13.23045469]}},{"type":"Feature","properties":{"stop_id":3540,"stopa_name":"Arasanahalli cross stop (up)"},"geometry":{"type":"Point","coordinates":[77.64358289,13.23052294]}},{"type":"Feature","properties":{"stop_id":11262,"stopa_name":"Arasu Colony"},"geometry":{"type":"Point","coordinates":[77.41382674,12.7134223]}},{"type":"Feature","properties":{"stop_id":7090,"stopa_name":"ARAVINDA LIMITED(towards - Bommanahalli)"},"geometry":{"type":"Point","coordinates":[77.67002463,12.81484566]}},{"type":"Feature","properties":{"stop_id":7089,"stopa_name":"ARAVINDA LIMITED(towards - Jiganr)"},"geometry":{"type":"Point","coordinates":[77.67016411,12.81475151]}},{"type":"Feature","properties":{"stop_id":4032,"stopa_name":"Arch Railway Gollahalli(towards - Byranayakanahalli)"},"geometry":{"type":"Point","coordinates":[77.41186636,13.14818198]}},{"type":"Feature","properties":{"stop_id":4033,"stopa_name":"Arch Railway Gollahalli (towards - Nelamangala)"},"geometry":{"type":"Point","coordinates":[77.411918,13.14820221]}},{"type":"Feature","properties":{"stop_id":11748,"stopa_name":"Archakara Badavane"},"geometry":{"type":"Point","coordinates":[77.45227084,12.91875233]}},{"type":"Feature","properties":{"stop_id":11747,"stopa_name":"Archakara Badavane"},"geometry":{"type":"Point","coordinates":[77.4525471,12.91878305]}},{"type":"Feature","properties":{"stop_id":11415,"stopa_name":"Ardendale Gate Kannamangala Road"},"geometry":{"type":"Point","coordinates":[77.76731439,13.02691644]}},{"type":"Feature","properties":{"stop_id":5305,"stopa_name":"Are Bannimangala(towards - Bagalur)"},"geometry":{"type":"Point","coordinates":[77.71701157,13.15393857]}},{"type":"Feature","properties":{"stop_id":5304,"stopa_name":"Are Bannimangala(towards - Hunasoor)"},"geometry":{"type":"Point","coordinates":[77.71710277,13.15398428]}},{"type":"Feature","properties":{"stop_id":3400,"stopa_name":"Arehalli(towards - Attibele)"},"geometry":{"type":"Point","coordinates":[77.76696208,12.76326655]}},{"type":"Feature","properties":{"stop_id":6970,"stopa_name":"Arehalli(towards - Arehalli Cross)"},"geometry":{"type":"Point","coordinates":[77.82986552,12.93725839]}},{"type":"Feature","properties":{"stop_id":8436,"stopa_name":"Arehalli(towards - Marasandra Circle)"},"geometry":{"type":"Point","coordinates":[77.56623388,13.27064531]}},{"type":"Feature","properties":{"stop_id":5051,"stopa_name":"Arehalli(towards - Uttarahalli)"},"geometry":{"type":"Point","coordinates":[77.53826916,12.90850923]}},{"type":"Feature","properties":{"stop_id":6969,"stopa_name":"Arehalli(towards - Tattnur)"},"geometry":{"type":"Point","coordinates":[77.82993793,12.93714337]}},{"type":"Feature","properties":{"stop_id":3401,"stopa_name":"Arehalli(towards - Bhakthipura Cross)"},"geometry":{"type":"Point","coordinates":[77.76729201,12.76351821]}},{"type":"Feature","properties":{"stop_id":5052,"stopa_name":"Arehalli(towards - Kengeri)"},"geometry":{"type":"Point","coordinates":[77.53822356,12.90838635]}},{"type":"Feature","properties":{"stop_id":2265,"stopa_name":"Arehalli Cross(towards - Dunnasandra Cross)"},"geometry":{"type":"Point","coordinates":[77.8364487,12.94224784]}},{"type":"Feature","properties":{"stop_id":2211,"stopa_name":"Arehalli cross(towards - chikka tirupathi)"},"geometry":{"type":"Point","coordinates":[77.83685986,12.94225296]}},{"type":"Feature","properties":{"stop_id":113,"stopa_name":"Arekere Gate(towards - IIBM)"},"geometry":{"type":"Point","coordinates":[77.59802821,12.89062758]}},{"type":"Feature","properties":{"stop_id":10892,"stopa_name":"Arekere Gate(towards - Hulimavu Gate)"},"geometry":{"type":"Point","coordinates":[77.59788126,12.89062069]}},{"type":"Feature","properties":{"stop_id":10891,"stopa_name":"Arekere Gate(towards - Arekere Mico layout)"},"geometry":{"type":"Point","coordinates":[77.59793088,12.89054422]}},{"type":"Feature","properties":{"stop_id":10872,"stopa_name":"Arekere lakshmi Layout(towards - Last Point)"},"geometry":{"type":"Point","coordinates":[77.59343885,12.89124297]}},{"type":"Feature","properties":{"stop_id":10871,"stopa_name":"Arekere Lakshmi Layout(towards - Arekere Gate)"},"geometry":{"type":"Point","coordinates":[77.59348578,12.89127499]}},{"type":"Feature","properties":{"stop_id":3118,"stopa_name":"Arenur(towards - Bidaraguppe)"},"geometry":{"type":"Point","coordinates":[77.77503163,12.80984171]}},{"type":"Feature","properties":{"stop_id":3117,"stopa_name":"Arenur(towards - Handenahalli)"},"geometry":{"type":"Point","coordinates":[77.77489904,12.80975136]}},{"type":"Feature","properties":{"stop_id":863,"stopa_name":"Arishinakunte(towards - Jalahalli Cross)"},"geometry":{"type":"Point","coordinates":[77.42405923,13.08030642]}},{"type":"Feature","properties":{"stop_id":10488,"stopa_name":"Arishinakunte(towards - Gejjagadahalli)"},"geometry":{"type":"Point","coordinates":[77.42415793,13.07956515]}},{"type":"Feature","properties":{"stop_id":435,"stopa_name":"Arishinakunte(towards - Nelamangala)"},"geometry":{"type":"Point","coordinates":[77.42398115,13.0797522]}},{"type":"Feature","properties":{"stop_id":3976,"stopa_name":"Arivesandra(towards - T Begur)"},"geometry":{"type":"Point","coordinates":[77.32517747,13.18505882]}},{"type":"Feature","properties":{"stop_id":3975,"stopa_name":"Arivesandra(towards - Thyamagondlu)"},"geometry":{"type":"Point","coordinates":[77.32512083,13.18504353]}},{"type":"Feature","properties":{"stop_id":3603,"stopa_name":"Arjun Bettahalli"},"geometry":{"type":"Point","coordinates":[77.41895845,13.15959431]}},{"type":"Feature","properties":{"stop_id":10433,"stopa_name":"Arjuna Bettahalli(towards - Railway Gollahalli)"},"geometry":{"type":"Point","coordinates":[77.41901346,13.1595866]}},{"type":"Feature","properties":{"stop_id":11316,"stopa_name":"Armugam Circle(towards - LAST Stop)"},"geometry":{"type":"Point","coordinates":[77.57725909,12.93976663]}},{"type":"Feature","properties":{"stop_id":11621,"stopa_name":"Army Public School Dicknson Road(towards - End Point)"},"geometry":{"type":"Point","coordinates":[77.61305451,12.9792899]}},{"type":"Feature","properties":{"stop_id":3761,"stopa_name":"Aroghya Dhama (mariyamma Nagar)(towards - Kunigal Main Road)"},"geometry":{"type":"Point","coordinates":[77.35303048,13.07829816]}},{"type":"Feature","properties":{"stop_id":3760,"stopa_name":"Arogya Dhama (Mariyammana Nagara)(towards - Srinivasapura)"},"geometry":{"type":"Point","coordinates":[77.3529561,13.07832153]}},{"type":"Feature","properties":{"stop_id":11966,"stopa_name":"Arthipalya(towards - Ravuttnahalli)"},"geometry":{"type":"Point","coordinates":[77.42601335,13.03724093]}},{"type":"Feature","properties":{"stop_id":11967,"stopa_name":"Arthipalya(towards - Tumkur Road)"},"geometry":{"type":"Point","coordinates":[77.42592685,13.03723832]}},{"type":"Feature","properties":{"stop_id":11250,"stopa_name":"Aryabata ISRO Satellite Centre Chartered"},"geometry":{"type":"Point","coordinates":[77.65649021,12.95970026]}},{"type":"Feature","properties":{"stop_id":1756,"stopa_name":"ASC Centre(towards - Vanarpet)"},"geometry":{"type":"Point","coordinates":[77.6190769,12.96238716]}},{"type":"Feature","properties":{"stop_id":1769,"stopa_name":"ASC Centre(towards - India Garrage)"},"geometry":{"type":"Point","coordinates":[77.61906088,12.96196913]}},{"type":"Feature","properties":{"stop_id":2961,"stopa_name":"Ashoka Pillar(towards - Wilson Garden)"},"geometry":{"type":"Point","coordinates":[77.58518817,12.94234489]}},{"type":"Feature","properties":{"stop_id":1889,"stopa_name":"Ashoka Pillar(towards - Jayanagar TTMC)"},"geometry":{"type":"Point","coordinates":[77.58542203,12.94312115]}},{"type":"Feature","properties":{"stop_id":2963,"stopa_name":"Ashoka Pillar(towards - Kempegowda Bus Station)"},"geometry":{"type":"Point","coordinates":[77.58459563,12.94366281]}},{"type":"Feature","properties":{"stop_id":2738,"stopa_name":"Ashokanagara (towards - vidyapeeta Circle)"},"geometry":{"type":"Point","coordinates":[77.56253708,12.93700975]}},{"type":"Feature","properties":{"stop_id":2756,"stopa_name":"Ashoknagara(towards - Ganesh Bhavana)"},"geometry":{"type":"Point","coordinates":[77.56222492,12.9367797]}},{"type":"Feature","properties":{"stop_id":77,"stopa_name":"Ashrama (Ananda Ashram)(towards - IBM(Bannerughatta Road))"},"geometry":{"type":"Point","coordinates":[77.6006887,12.92725733]}},{"type":"Feature","properties":{"stop_id":7349,"stopa_name":"Ashrama Ramohalli(towards - Bheemanakuppe Cross)"},"geometry":{"type":"Point","coordinates":[77.42880754,12.90633859]}},{"type":"Feature","properties":{"stop_id":7348,"stopa_name":"Ashrama Ramohalli(towards - Ramohalli)"},"geometry":{"type":"Point","coordinates":[77.42873847,12.90631572]}},{"type":"Feature","properties":{"stop_id":7354,"stopa_name":"Ashrama Savandarbar(towards - Uttarahalli)"},"geometry":{"type":"Point","coordinates":[77.49236852,12.90978898]}},{"type":"Feature","properties":{"stop_id":122,"stopa_name":"Ashrama(Ananda Ashram)(towards - Bangalore Circle)"},"geometry":{"type":"Point","coordinates":[77.60038036,12.92668624]}},{"type":"Feature","properties":{"stop_id":2369,"stopa_name":"Ashvathkatte Manorayanapalya(towards - Manorayanapalya)"},"geometry":{"type":"Point","coordinates":[77.60448668,13.02847436]}},{"type":"Feature","properties":{"stop_id":6781,"stopa_name":"Ashvathkatte Manorayanapalya"},"geometry":{"type":"Point","coordinates":[77.60451905,13.0284184]}},{"type":"Feature","properties":{"stop_id":2441,"stopa_name":"Ashwatanagara(towards - Nagashettahalli)"},"geometry":{"type":"Point","coordinates":[77.57968788,13.02696739]}},{"type":"Feature","properties":{"stop_id":2458,"stopa_name":"Ashwatanagara(towards - Gangenahalli)"},"geometry":{"type":"Point","coordinates":[77.57992293,13.02679215]}},{"type":"Feature","properties":{"stop_id":5009,"stopa_name":"Ashwathanagara(towards - Saraipalya)"},"geometry":{"type":"Point","coordinates":[77.63126764,13.05247275]}},{"type":"Feature","properties":{"stop_id":4857,"stopa_name":"Ashwathanagara(towards - Thanisandra)"},"geometry":{"type":"Point","coordinates":[77.63124794,13.05279671]}},{"type":"Feature","properties":{"stop_id":9796,"stopa_name":"Ashwathapura(towards - Marathahalli)"},"geometry":{"type":"Point","coordinates":[77.70409808,12.96140846]}},{"type":"Feature","properties":{"stop_id":9797,"stopa_name":"Ashwathapura(towards - Chinnappanahalli)"},"geometry":{"type":"Point","coordinates":[77.70406991,12.96118954]}},{"type":"Feature","properties":{"stop_id":6779,"stopa_name":"Ashwathkatte Sultanpalya(towards - RT Nagara)"},"geometry":{"type":"Point","coordinates":[77.60336637,13.02463058]}},{"type":"Feature","properties":{"stop_id":2358,"stopa_name":"Ashwathkatte Sultanpalya(towards - Sultanpalya)"},"geometry":{"type":"Point","coordinates":[77.60329196,13.02466383]}},{"type":"Feature","properties":{"stop_id":9809,"stopa_name":"Ashwathnagara"},"geometry":{"type":"Point","coordinates":[77.70154595,12.96034788]}},{"type":"Feature","properties":{"stop_id":5016,"stopa_name":"Ashwathnagara Cross(towards - Tanisandara)"},"geometry":{"type":"Point","coordinates":[77.6304174,13.05066517]}},{"type":"Feature","properties":{"stop_id":5015,"stopa_name":"Ashwathnagara Cross(towards - Nagavara)"},"geometry":{"type":"Point","coordinates":[77.63053237,13.05053295]}},{"type":"Feature","properties":{"stop_id":3405,"stopa_name":"Athibele Circle(towards - Sarjapura)"},"geometry":{"type":"Point","coordinates":[77.76971795,12.77784875]}},{"type":"Feature","properties":{"stop_id":11676,"stopa_name":"Athimagere Gate(towards - Dabbaguli)"},"geometry":{"type":"Point","coordinates":[77.28360079,12.87458477]}},{"type":"Feature","properties":{"stop_id":11675,"stopa_name":"Athimagere Gate(towards - Annekarahalli)"},"geometry":{"type":"Point","coordinates":[77.28364639,12.87457038]}},{"type":"Feature","properties":{"stop_id":9953,"stopa_name":"Athimgere(towards - Annikaranahalli)"},"geometry":{"type":"Point","coordinates":[77.27889754,12.87055536]}},{"type":"Feature","properties":{"stop_id":9952,"stopa_name":"Athimgere(towards - Matha Village)"},"geometry":{"type":"Point","coordinates":[77.27895252,12.87066388]}},{"type":"Feature","properties":{"stop_id":6688,"stopa_name":"Atthivatha Gate(towards - Hosakote)"},"geometry":{"type":"Point","coordinates":[77.85527408,13.09724349]}},{"type":"Feature","properties":{"stop_id":8681,"stopa_name":"Atthivatha Gate(towards - Nidughatta)"},"geometry":{"type":"Point","coordinates":[77.85553962,13.09732708]}},{"type":"Feature","properties":{"stop_id":6687,"stopa_name":"Atthivatta Gate(towards - Kolar)"},"geometry":{"type":"Point","coordinates":[77.85521239,13.09743158]}},{"type":"Feature","properties":{"stop_id":12181,"stopa_name":"Attibele Border (towards - Last Bus Stop)"},"geometry":{"type":"Point","coordinates":[77.77676582,12.77729095]}},{"type":"Feature","properties":{"stop_id":12182,"stopa_name":"Attibele Border (towards - Attibele Bus Stand)"},"geometry":{"type":"Point","coordinates":[77.7762723,12.77696136]}},{"type":"Feature","properties":{"stop_id":8546,"stopa_name":"Attibele Bus Stand"},"geometry":{"type":"Point","coordinates":[77.77121902,12.77815939]}},{"type":"Feature","properties":{"stop_id":3617,"stopa_name":"Attibele Circle(towards - Anekal)"},"geometry":{"type":"Point","coordinates":[77.77059874,12.77947774]}},{"type":"Feature","properties":{"stop_id":3625,"stopa_name":"Attibele Circle (towards - Hosur)"},"geometry":{"type":"Point","coordinates":[77.76981622,12.77921093]}},{"type":"Feature","properties":{"stop_id":3404,"stopa_name":"Attibele Circle(towards - Anekal)"},"geometry":{"type":"Point","coordinates":[77.7698067,12.777852]}},{"type":"Feature","properties":{"stop_id":3403,"stopa_name":"Attibele Circle(towards - Yedavanahalli)"},"geometry":{"type":"Point","coordinates":[77.76972824,12.77887146]}},{"type":"Feature","properties":{"stop_id":3626,"stopa_name":"Attibele Circle(towards - Sarjapura)"},"geometry":{"type":"Point","coordinates":[77.77055114,12.77958761]}},{"type":"Feature","properties":{"stop_id":1657,"stopa_name":"Attibele Sulibele(towards - Hosakote)"},"geometry":{"type":"Point","coordinates":[77.79390456,13.16983801]}},{"type":"Feature","properties":{"stop_id":10351,"stopa_name":"Attiguppe(towards - West of Chord Road)"},"geometry":{"type":"Point","coordinates":[77.53426261,12.95772875]}},{"type":"Feature","properties":{"stop_id":1501,"stopa_name":"Attiguppe(towards - Deepanjalinagara)"},"geometry":{"type":"Point","coordinates":[77.53402576,12.95790131]}},{"type":"Feature","properties":{"stop_id":11059,"stopa_name":"Attiguppe(towards - RPC Layout)"},"geometry":{"type":"Point","coordinates":[77.53424384,12.95777123]}},{"type":"Feature","properties":{"stop_id":1400,"stopa_name":"Attiguppe(towards - Vijayanagara)"},"geometry":{"type":"Point","coordinates":[77.53384684,12.95780009]}},{"type":"Feature","properties":{"stop_id":1544,"stopa_name":"Attiibele  Sulibele(towards - Vijayapura)"},"geometry":{"type":"Point","coordinates":[77.79381003,13.16979762]}},{"type":"Feature","properties":{"stop_id":9664,"stopa_name":"Attingere Gate(towards - Veeregowdana Doddi)"},"geometry":{"type":"Point","coordinates":[77.28348411,12.87454359]}},{"type":"Feature","properties":{"stop_id":6128,"stopa_name":"Attivatta(towards - Kolar Road)"},"geometry":{"type":"Point","coordinates":[77.85347968,13.08811547]}},{"type":"Feature","properties":{"stop_id":6129,"stopa_name":"Attivatta(towards - Thavathahalli)"},"geometry":{"type":"Point","coordinates":[77.85298348,13.08797961]}},{"type":"Feature","properties":{"stop_id":6067,"stopa_name":"Attur(towards - Hosakote)"},"geometry":{"type":"Point","coordinates":[77.85863715,13.09854578]}},{"type":"Feature","properties":{"stop_id":6066,"stopa_name":"Attur(towards - Kolar)"},"geometry":{"type":"Point","coordinates":[77.85840917,13.09877045]}},{"type":"Feature","properties":{"stop_id":7431,"stopa_name":"Attur Layout(towards - MS Palya)"},"geometry":{"type":"Point","coordinates":[77.56754547,13.09778948]}},{"type":"Feature","properties":{"stop_id":7430,"stopa_name":"Attur Layout(towards - Yehalanka)"},"geometry":{"type":"Point","coordinates":[77.5675039,13.09790705]}},{"type":"Feature","properties":{"stop_id":5744,"stopa_name":"Attur Layout Vegetable Market(towards - Attur Layout Main Road)"},"geometry":{"type":"Point","coordinates":[77.5668776,13.10073779]}},{"type":"Feature","properties":{"stop_id":5743,"stopa_name":"Attur Layout Vegetable Market(towards - Attur)"},"geometry":{"type":"Point","coordinates":[77.56680519,13.10085492]}},{"type":"Feature","properties":{"stop_id":7428,"stopa_name":"Atturu"},"geometry":{"type":"Point","coordinates":[77.56565318,13.10831605]}},{"type":"Feature","properties":{"stop_id":5745,"stopa_name":"Atturu(towards - Attur Layout)"},"geometry":{"type":"Point","coordinates":[77.56576181,13.10831951]}},{"type":"Feature","properties":{"stop_id":1723,"stopa_name":"Austin Town(towards - Mayohall)"},"geometry":{"type":"Point","coordinates":[77.61420642,12.96146909]}},{"type":"Feature","properties":{"stop_id":1755,"stopa_name":"Austin Town(towards - Vivekanagara)"},"geometry":{"type":"Point","coordinates":[77.61335987,12.96162379]}},{"type":"Feature","properties":{"stop_id":1732,"stopa_name":"Austin Town Neelasandra(towards - Neelasandra Rose Garden )"},"geometry":{"type":"Point","coordinates":[77.61248411,12.96143478]}},{"type":"Feature","properties":{"stop_id":1754,"stopa_name":"Austin Town Neelasandra(towards - Mayohall)"},"geometry":{"type":"Point","coordinates":[77.61239652,12.9613877]}},{"type":"Feature","properties":{"stop_id":1479,"stopa_name":"Avadadenahalli gate(towards - Karpur gate)"},"geometry":{"type":"Point","coordinates":[77.70783595,12.74667616]}},{"type":"Feature","properties":{"stop_id":4035,"stopa_name":"Avadadenahalli Gate(towards - Byagadadenahalli)"},"geometry":{"type":"Point","coordinates":[77.70771101,12.74653684]}},{"type":"Feature","properties":{"stop_id":1286,"stopa_name":"Avalahalli(towards - Anjanapura)"},"geometry":{"type":"Point","coordinates":[77.566636,12.87283114]}},{"type":"Feature","properties":{"stop_id":5706,"stopa_name":"Avalahalli(towards - KBS)"},"geometry":{"type":"Point","coordinates":[77.73549132,13.03534724]}},{"type":"Feature","properties":{"stop_id":1885,"stopa_name":"Avalahalli(towards - Yelahanka NES)"},"geometry":{"type":"Point","coordinates":[77.56920107,13.13520502]}},{"type":"Feature","properties":{"stop_id":604,"stopa_name":"Avalahalli(towards - Hosakote)"},"geometry":{"type":"Point","coordinates":[77.73601632,13.03615133]}},{"type":"Feature","properties":{"stop_id":634,"stopa_name":"Avalahalli(towards - Ramapura)"},"geometry":{"type":"Point","coordinates":[77.73533814,13.03572917]}},{"type":"Feature","properties":{"stop_id":1805,"stopa_name":"Avalahalli(towards - Doddaballapura)"},"geometry":{"type":"Point","coordinates":[77.56907652,13.13527565]}},{"type":"Feature","properties":{"stop_id":1287,"stopa_name":"Avalahalli(towards - Konanakunte)"},"geometry":{"type":"Point","coordinates":[77.56656024,12.87289023]}},{"type":"Feature","properties":{"stop_id":10291,"stopa_name":"Avalahalli ( Huskuru Electronic city)(towards - Huskuru)"},"geometry":{"type":"Point","coordinates":[77.71175444,12.86966365]}},{"type":"Feature","properties":{"stop_id":10290,"stopa_name":"Avalahalli ( Huskuru Electronic City)(towards - Dommasandra and Chokkasandra)"},"geometry":{"type":"Point","coordinates":[77.71162569,12.86956952]}},{"type":"Feature","properties":{"stop_id":9434,"stopa_name":"Avalahalli (Hosakote Road)(towards - Yarandahalli)"},"geometry":{"type":"Point","coordinates":[77.73470074,13.03653344]}},{"type":"Feature","properties":{"stop_id":9430,"stopa_name":"Avalahalli (Hoskote Road)(towards - Lasa Bus Stop)"},"geometry":{"type":"Point","coordinates":[77.7347517,13.03666932]}},{"type":"Feature","properties":{"stop_id":9401,"stopa_name":"Avalahalli BDA Layout(towards - end point)"},"geometry":{"type":"Point","coordinates":[77.56129861,12.87256289]}},{"type":"Feature","properties":{"stop_id":9399,"stopa_name":"Avalahalli BDA Layout(towards - Konanakunte)"},"geometry":{"type":"Point","coordinates":[77.56125166,12.87272305]}},{"type":"Feature","properties":{"stop_id":10983,"stopa_name":"Avalahalli BDA Layout Cross(towards - KR Market)"},"geometry":{"type":"Point","coordinates":[77.56150581,12.87384478]}},{"type":"Feature","properties":{"stop_id":10982,"stopa_name":"Avalahalli BDA Layout Cross(towards - Kothanur)"},"geometry":{"type":"Point","coordinates":[77.56151922,12.8738827]}},{"type":"Feature","properties":{"stop_id":4938,"stopa_name":"Avalahalli BDA Park (Girinagara)(towards - Girinagara)"},"geometry":{"type":"Point","coordinates":[77.54270151,12.94335903]}},{"type":"Feature","properties":{"stop_id":1373,"stopa_name":"Avalahalli BDA Park (Girinagara)(towards - Last Bus Stop)"},"geometry":{"type":"Point","coordinates":[77.54261674,12.94323054]}},{"type":"Feature","properties":{"stop_id":4933,"stopa_name":"Avalahalli New BDA Layout(towards - Veerabhadranagara)"},"geometry":{"type":"Point","coordinates":[77.53685899,12.94337406]}},{"type":"Feature","properties":{"stop_id":4934,"stopa_name":"Avalahalli New BDA Layout(towards - Girinagara)"},"geometry":{"type":"Point","coordinates":[77.53678859,12.94342961]}},{"type":"Feature","properties":{"stop_id":3771,"stopa_name":"Avalakuppe Cross"},"geometry":{"type":"Point","coordinates":[77.34846453,13.02375791]}},{"type":"Feature","properties":{"stop_id":3687,"stopa_name":"Avalakuppe Cross"},"geometry":{"type":"Point","coordinates":[77.3484118,13.02381911]}},{"type":"Feature","properties":{"stop_id":9436,"stopa_name":"Avaragere"},"geometry":{"type":"Point","coordinates":[77.38078594,12.82002541]}},{"type":"Feature","properties":{"stop_id":9437,"stopa_name":"Avaragere(towards - Bidadi)"},"geometry":{"type":"Point","coordinates":[77.38086037,12.82006857]}},{"type":"Feature","properties":{"stop_id":6250,"stopa_name":"Avaragere Cross(towards - Bidadi)"},"geometry":{"type":"Point","coordinates":[77.37783618,12.80961546]}},{"type":"Feature","properties":{"stop_id":6249,"stopa_name":"Avaragere Cross(towards - Avaregere)"},"geometry":{"type":"Point","coordinates":[77.3777718,12.80963638]}},{"type":"Feature","properties":{"stop_id":11243,"stopa_name":"Avarehalli"},"geometry":{"type":"Point","coordinates":[77.33695865,12.89925661]}},{"type":"Feature","properties":{"stop_id":11245,"stopa_name":"Avarehalli(towards - Chikkanahalli)"},"geometry":{"type":"Point","coordinates":[77.33697675,12.89933504]}},{"type":"Feature","properties":{"stop_id":11236,"stopa_name":"Avasarala Factory(towards - Sommanahalli Gate)"},"geometry":{"type":"Point","coordinates":[77.49259785,12.78208564]}},{"type":"Feature","properties":{"stop_id":11237,"stopa_name":"Avasarala Factory(towards - K Chudahalli)"},"geometry":{"type":"Point","coordinates":[77.49261528,12.78200782]}},{"type":"Feature","properties":{"stop_id":1618,"stopa_name":"Avathi(towards - Chikkaballapura)"},"geometry":{"type":"Point","coordinates":[77.72547817,13.29632807]}},{"type":"Feature","properties":{"stop_id":10120,"stopa_name":"Avathi(towards - Devanahalli)"},"geometry":{"type":"Point","coordinates":[77.72560268,13.29627076]}},{"type":"Feature","properties":{"stop_id":9968,"stopa_name":"Averahalli(towards - Ravuttanahalli)"},"geometry":{"type":"Point","coordinates":[77.41617434,13.03507599]}},{"type":"Feature","properties":{"stop_id":4804,"stopa_name":"Averahalli"},"geometry":{"type":"Point","coordinates":[77.41611595,13.03502821]}},{"type":"Feature","properties":{"stop_id":11897,"stopa_name":"Averahalli Cross(towards - Shivanapura Cross)"},"geometry":{"type":"Point","coordinates":[77.41492778,13.04392312]}},{"type":"Feature","properties":{"stop_id":11896,"stopa_name":"Averahalli Cross(towards - Mallapura)"},"geometry":{"type":"Point","coordinates":[77.41489559,13.04391332]}},{"type":"Feature","properties":{"stop_id":9970,"stopa_name":"Averahalli Cross(towards - Ravuttanahalli)"},"geometry":{"type":"Point","coordinates":[77.42185928,13.03337486]}},{"type":"Feature","properties":{"stop_id":9969,"stopa_name":"Averahalli Cross(towards - Averahalli)"},"geometry":{"type":"Point","coordinates":[77.42183983,13.03343105]}},{"type":"Feature","properties":{"stop_id":2137,"stopa_name":"Avinash Petrol Bunk"},"geometry":{"type":"Point","coordinates":[77.58871406,12.99049507]}},{"type":"Feature","properties":{"stop_id":6952,"stopa_name":"Ayurvedic Hospital(towards - Tattanur)"},"geometry":{"type":"Point","coordinates":[77.80036926,12.96951459]}},{"type":"Feature","properties":{"stop_id":6951,"stopa_name":"Ayurvedic Hospital(towards - Bodanaha Hosahalli)"},"geometry":{"type":"Point","coordinates":[77.8001976,12.9697446]}},{"type":"Feature","properties":{"stop_id":6819,"stopa_name":"Ayyappa Bakery"},"geometry":{"type":"Point","coordinates":[77.64799833,13.00619635]}},{"type":"Feature","properties":{"stop_id":2453,"stopa_name":"Ayyappa Bakery Bhoopasandra(towards - Ashwathnagara)"},"geometry":{"type":"Point","coordinates":[77.57718228,13.04261114]}},{"type":"Feature","properties":{"stop_id":2446,"stopa_name":"Ayyappa Bakery Bhoopasandra(towards - Bhoopasandra)"},"geometry":{"type":"Point","coordinates":[77.57707624,13.04263246]}},{"type":"Feature","properties":{"stop_id":2029,"stopa_name":"Ayyappa Nagar  Sadaramangala(towards - Sadramangla)"},"geometry":{"type":"Point","coordinates":[77.71001823,13.00430618]}},{"type":"Feature","properties":{"stop_id":2106,"stopa_name":"Ayyappa Nagara  Sadaramangala(towards - KBS)"},"geometry":{"type":"Point","coordinates":[77.70996585,13.00425963]}},{"type":"Feature","properties":{"stop_id":12297,"stopa_name":"Ayyappa School (Keregudadahalli)(towards - End Point)"},"geometry":{"type":"Point","coordinates":[77.51699924,13.0746762]}},{"type":"Feature","properties":{"stop_id":11310,"stopa_name":"Ayyappa Temple (Banasawadi)(towards - Outer Ring Road)"},"geometry":{"type":"Point","coordinates":[77.64078788,13.00755204]}},{"type":"Feature","properties":{"stop_id":12339,"stopa_name":"Ayyappa Temple (Chikka Banasawadi)(towards - Sevanagara)"},"geometry":{"type":"Point","coordinates":[77.64109567,13.00609182]}},{"type":"Feature","properties":{"stop_id":11512,"stopa_name":"Ayyappa Temple (Koramangala)(towards - Last Bus Stop)"},"geometry":{"type":"Point","coordinates":[77.61794686,12.93636698]}},{"type":"Feature","properties":{"stop_id":4899,"stopa_name":"Ayyappa Temple Jalahalli Cross(towards - Jalahalli Cross)"},"geometry":{"type":"Point","coordinates":[77.52240926,13.04622778]}},{"type":"Feature","properties":{"stop_id":498,"stopa_name":"Ayyappa Temple Jalahalli Cross(towards - Kammagondanahalli)"},"geometry":{"type":"Point","coordinates":[77.52259909,13.04661941]}},{"type":"Feature","properties":{"stop_id":261,"stopa_name":"Ayyappa Temple Yeshwanthapura(towards - Yeshwanthpura)"},"geometry":{"type":"Point","coordinates":[77.56314794,13.02139756]}},{"type":"Feature","properties":{"stop_id":5731,"stopa_name":"Ayyappa Temple Yeshwanthapura(towards - Mattikere)"},"geometry":{"type":"Point","coordinates":[77.56306618,13.02145869]}},{"type":"Feature","properties":{"stop_id":11309,"stopa_name":"Ayyappa Temple(Banasawadi)(towards - Shivajinagara)"},"geometry":{"type":"Point","coordinates":[77.64082275,13.00750892]}},{"type":"Feature","properties":{"stop_id":2105,"stopa_name":"Ayyappanagara Muneshwara Temple(towards - KBS)"},"geometry":{"type":"Point","coordinates":[77.71270457,13.00446282]}},{"type":"Feature","properties":{"stop_id":9325,"stopa_name":"Ayyappanagara Muneshwara Temple(towards - KR Puram)"},"geometry":{"type":"Point","coordinates":[77.71243438,13.00444929]}},{"type":"Feature","properties":{"stop_id":2030,"stopa_name":"Ayyappanagara Muneshwara Temple(towards - Sadaramangala)"},"geometry":{"type":"Point","coordinates":[77.71239878,13.00450683]}},{"type":"Feature","properties":{"stop_id":9929,"stopa_name":"Aziz Palya(towards - Sondekoppa)"},"geometry":{"type":"Point","coordinates":[77.36688003,13.0272098]}},{"type":"Feature","properties":{"stop_id":9928,"stopa_name":"Aziz Palya(towards - Manchenahalli)"},"geometry":{"type":"Point","coordinates":[77.36695714,13.02712226]}},{"type":"Feature","properties":{"stop_id":5463,"stopa_name":"Baalepura(towards - Sulibele)"},"geometry":{"type":"Point","coordinates":[77.77892769,13.19919398]}},{"type":"Feature","properties":{"stop_id":5464,"stopa_name":"Baalepura(towards - Vijaypura)"},"geometry":{"type":"Point","coordinates":[77.7788492,13.19920225]}},{"type":"Feature","properties":{"stop_id":5462,"stopa_name":"Baalepura Gate(towards - Sulibele)"},"geometry":{"type":"Point","coordinates":[77.77707317,13.19786196]}},{"type":"Feature","properties":{"stop_id":1551,"stopa_name":"Baalepura Gate(towards - Ariahinakunte)"},"geometry":{"type":"Point","coordinates":[77.77703119,13.1977421]}},{"type":"Feature","properties":{"stop_id":6499,"stopa_name":"Baalepura Gate(towards - Sulibele)"},"geometry":{"type":"Point","coordinates":[77.77716636,13.1976917]}},{"type":"Feature","properties":{"stop_id":12281,"stopa_name":"Babusabapalya(towards - Maruthi Sevanagara)"},"geometry":{"type":"Point","coordinates":[77.64744647,13.02217676]}},{"type":"Feature","properties":{"stop_id":9345,"stopa_name":"Babusabpalya"},"geometry":{"type":"Point","coordinates":[77.64749274,13.02280852]}},{"type":"Feature","properties":{"stop_id":11472,"stopa_name":"Babusabpalya(towards - Outer Ring Road End Point)"},"geometry":{"type":"Point","coordinates":[77.64740088,13.02227085]}},{"type":"Feature","properties":{"stop_id":5933,"stopa_name":"Babusabpalya(towards - Tinfactory)"},"geometry":{"type":"Point","coordinates":[77.64753967,13.02253806]}},{"type":"Feature","properties":{"stop_id":415,"stopa_name":"Babusabpalya(towards - Hebbala)"},"geometry":{"type":"Point","coordinates":[77.64745137,13.02233464]}},{"type":"Feature","properties":{"stop_id":1578,"stopa_name":"Bachahalli  Gate(towards - Bhuvanahalli Gate)"},"geometry":{"type":"Point","coordinates":[77.67320557,13.21223046]}},{"type":"Feature","properties":{"stop_id":8415,"stopa_name":"Bachahalli Gate(towards - Venkatala)"},"geometry":{"type":"Point","coordinates":[77.67315745,13.21186088]}},{"type":"Feature","properties":{"stop_id":10991,"stopa_name":"Badekatte(towards - Thattahalli)"},"geometry":{"type":"Point","coordinates":[77.48976409,12.81804165]}},{"type":"Feature","properties":{"stop_id":10990,"stopa_name":"Badekatte(towards - Kaggilapura)"},"geometry":{"type":"Point","coordinates":[77.48992503,12.81805603]}},{"type":"Feature","properties":{"stop_id":9092,"stopa_name":"Bagalagunte Cross(towards - 8th Mile)"},"geometry":{"type":"Point","coordinates":[77.50728697,13.05700084]}},{"type":"Feature","properties":{"stop_id":874,"stopa_name":"Bagalagunte Cross(towards - Chikkabanavara)"},"geometry":{"type":"Point","coordinates":[77.50726038,13.05631085]}},{"type":"Feature","properties":{"stop_id":9211,"stopa_name":"Bagalagunte Cross(towards - 8th Mile)"},"geometry":{"type":"Point","coordinates":[77.50707373,13.05659062]}},{"type":"Feature","properties":{"stop_id":9155,"stopa_name":"Bagalagunte Village"},"geometry":{"type":"Point","coordinates":[77.50176228,13.05692768]}},{"type":"Feature","properties":{"stop_id":10689,"stopa_name":"Bagalakunte Cross(towards - 8th Mile)"},"geometry":{"type":"Point","coordinates":[77.50746467,13.05673563]}},{"type":"Feature","properties":{"stop_id":1854,"stopa_name":"Bagalur Cross(towards - Devanahalli)"},"geometry":{"type":"Point","coordinates":[77.6106065,13.12198268]}},{"type":"Feature","properties":{"stop_id":1879,"stopa_name":"Bagalur Cross(towards - Yelahanka)"},"geometry":{"type":"Point","coordinates":[77.61085849,13.12139734]}},{"type":"Feature","properties":{"stop_id":1656,"stopa_name":"Bagalur Cross(towards - Baglur)"},"geometry":{"type":"Point","coordinates":[77.61135255,13.12186064]}},{"type":"Feature","properties":{"stop_id":2419,"stopa_name":"Bagaluru(towards - Last Bus Stop)"},"geometry":{"type":"Point","coordinates":[77.66818298,13.13297822]}},{"type":"Feature","properties":{"stop_id":1867,"stopa_name":"Bagaluru(towards - Yediyuru)"},"geometry":{"type":"Point","coordinates":[77.66809243,13.13453399]}},{"type":"Feature","properties":{"stop_id":8890,"stopa_name":"Bagaluru(towards - Yelahanka)"},"geometry":{"type":"Point","coordinates":[77.66801431,13.13449009]}},{"type":"Feature","properties":{"stop_id":2428,"stopa_name":"Bagaluru  Colony(towards - Baglur)"},"geometry":{"type":"Point","coordinates":[77.67124013,13.1414137]}},{"type":"Feature","properties":{"stop_id":2429,"stopa_name":"Bagaluru Colony(towards - Hoovinayakanahalli)"},"geometry":{"type":"Point","coordinates":[77.67117856,13.14147354]}},{"type":"Feature","properties":{"stop_id":1156,"stopa_name":"Baglur Santhe(towards - Bagaluru  )"},"geometry":{"type":"Point","coordinates":[77.66669001,13.13342221]}},{"type":"Feature","properties":{"stop_id":10664,"stopa_name":"Baglur Santhe(towards - Kannur)"},"geometry":{"type":"Point","coordinates":[77.66676575,13.13334078]}},{"type":"Feature","properties":{"stop_id":1869,"stopa_name":"Baglur Santhe(towards - Yelahanka)"},"geometry":{"type":"Point","coordinates":[77.66669684,13.1333277]}},{"type":"Feature","properties":{"stop_id":1868,"stopa_name":"Bagluru(towards - Hoovinayakanahalli)"},"geometry":{"type":"Point","coordinates":[77.66799766,13.1345471]}},{"type":"Feature","properties":{"stop_id":833,"stopa_name":"Bagmane Tech Park (L R D E)(towards - CV Raman Nagara)"},"geometry":{"type":"Point","coordinates":[77.65657444,12.98078694]}},{"type":"Feature","properties":{"stop_id":832,"stopa_name":"Bagmane Tech Park (L R D E)(towards - Geethanjali Theatre)"},"geometry":{"type":"Point","coordinates":[77.6567011,12.98072801]}},{"type":"Feature","properties":{"stop_id":8827,"stopa_name":"Bagur(towards - Maglur)"},"geometry":{"type":"Point","coordinates":[77.84274817,12.89645189]}},{"type":"Feature","properties":{"stop_id":8826,"stopa_name":"Bagur(towards - Chikka Tirupathi)"},"geometry":{"type":"Point","coordinates":[77.84224391,12.89677087]}},{"type":"Feature","properties":{"stop_id":2252,"stopa_name":"Bagur dn"},"geometry":{"type":"Point","coordinates":[77.84648015,12.89469346]}},{"type":"Feature","properties":{"stop_id":2251,"stopa_name":"Bagur. BVW"},"geometry":{"type":"Point","coordinates":[77.84650925,12.89460613]}},{"type":"Feature","properties":{"stop_id":8430,"stopa_name":"Baichapura(towards - Rayasandra)"},"geometry":{"type":"Point","coordinates":[77.71277905,13.22431606]}},{"type":"Feature","properties":{"stop_id":2895,"stopa_name":"Baindahalli"},"geometry":{"type":"Point","coordinates":[77.44215424,13.006079]}},{"type":"Feature","properties":{"stop_id":2896,"stopa_name":"Baindahalli(towards - Kadabagere Cross)"},"geometry":{"type":"Point","coordinates":[77.44223278,13.00602692]}},{"type":"Feature","properties":{"stop_id":2891,"stopa_name":"Baindahalli Colony(towards - BMTC Training Centre)"},"geometry":{"type":"Point","coordinates":[77.4422773,13.00336388]}},{"type":"Feature","properties":{"stop_id":2893,"stopa_name":"Baindahalli Colony(towards - Kadabagere Cross)"},"geometry":{"type":"Point","coordinates":[77.44235242,13.0033962]}},{"type":"Feature","properties":{"stop_id":3207,"stopa_name":"Bairamangala Old(down)"},"geometry":{"type":"Point","coordinates":[77.42214392,12.74979807]}},{"type":"Feature","properties":{"stop_id":3206,"stopa_name":"Bairamangala Old(up)"},"geometry":{"type":"Point","coordinates":[77.42212519,12.74983858]}},{"type":"Feature","properties":{"stop_id":1716,"stopa_name":"Baiyapannahalli(towards - Marsandara)"},"geometry":{"type":"Point","coordinates":[77.72080307,13.07163802]}},{"type":"Feature","properties":{"stop_id":1744,"stopa_name":"Baiyappanahalli(towards - Avalahalli)"},"geometry":{"type":"Point","coordinates":[77.72080068,13.07151955]}},{"type":"Feature","properties":{"stop_id":3493,"stopa_name":"Baiyappanahalli Metro Station (Srinivasapura)(towards - KBS)"},"geometry":{"type":"Point","coordinates":[77.65509257,12.99012065]}},{"type":"Feature","properties":{"stop_id":1771,"stopa_name":"Baiyappanalli Cross(towards - KBS)"},"geometry":{"type":"Point","coordinates":[77.64256824,12.98505347]}},{"type":"Feature","properties":{"stop_id":1772,"stopa_name":"Baiyappanalli Cross(towards - Byappanalli)"},"geometry":{"type":"Point","coordinates":[77.64245632,12.98518795]}},{"type":"Feature","properties":{"stop_id":7396,"stopa_name":"Bakery JALAHALLI(towards - BEL Circle)"},"geometry":{"type":"Point","coordinates":[77.54978657,13.04264275]}},{"type":"Feature","properties":{"stop_id":12352,"stopa_name":"Bala Vikas School Gidadakonenahalli"},"geometry":{"type":"Point","coordinates":[77.49145187,12.97011573]}},{"type":"Feature","properties":{"stop_id":12014,"stopa_name":"Bala Vikasa International Nursery School"},"geometry":{"type":"Point","coordinates":[77.51470864,12.96685113]}},{"type":"Feature","properties":{"stop_id":5885,"stopa_name":"Baladimmanahalli(towards - Budigere)"},"geometry":{"type":"Point","coordinates":[77.74359227,13.18934073]}},